locality,latitude,longitude
Ham,49.746322,3.0733031
Putte,51.0570823,4.6310473
IVOZ-RAMET,50.5822766,5.4523491
Herstal,50.6650412,5.629981
Liege,50.6450944,5.5736112
Liège Grivegnée,50.6192957,5.6047622
Charleroi,50.4116459,4.4445264
Marchin,50.4802051,5.2263372
Somme-Leuze,50.3137229,5.3212257
Durbuy,50.3524116,5.456248
ETHE,49.5818622,5.5797776
Huy,50.5180856,5.2408138
Trooz,50.5728102,5.6883726
Olne,50.5901199,5.7479948
Liège,50.6450944,5.5736112
Sprimont,50.5065636,5.6466571
GRAIDE,49.9514336,5.0674675
Modave,50.4416137,5.3017936
Willebroek,51.0630286,4.3575474
Amay,50.5497761,5.3240992
Seraing,50.6152381,5.5089437
Liège Wandre,50.6702136,5.6598274
Wanze,50.5368559,5.2143865
Gesves,50.4028535,5.0776175
pilar de la horadada,37.8675489,-0.7925673
Evergem,51.1187231,3.70582
Brakel,51.7168889,9.1841762
Geraardsbergen,50.7715779,3.8827287
Brugge,51.2085526,3.226772
Pentagone (Bruxelles),50.8464884,4.3536847
Ursel,51.1300675,3.4855189
Laeken,50.883392,4.3487134
Lendelede,50.8854201,3.2310971
Kortemark,51.0314599,3.0368683
Herselt (Ramsel),51.0324718,4.8336098
Hamme,51.0881545,4.1202841
Hasselt,50.9303735,5.3378043
Maldegem,51.2088871,3.4452214
Frasnes-lez-Anvaing,50.6808372,3.6235393
Roeselare,50.9444948,3.124765
Lichtervelde,51.0274096,3.1402247
Schilde,51.257095,4.5955182
De Panne,51.095512,2.5811646
Tisselt,51.033992,4.3598407
Sint-Denijs-Westrem,51.0199405,3.6676767
Zwijnaarde,51.0003917,3.7167702
Woluwe-Saint-Pierre,50.8370253,4.4274636
Ledeberg,51.0372053,3.7414088
Beersel,50.7478412,4.3065271
Steenokkerzeel,50.9093488,4.5110471
Halle,51.4825041,11.9705452
Buizingen,50.7412271,4.2493488
Waterloo,42.498275,-92.3328743
Grimbergen,50.9457843,4.3890967
Vilvoorde,50.928711,4.423126
Thimister-Clermont,50.6533204,5.8625239
Brussels City,50.9421615,4.0388556
Etterbeek,50.8361447,4.3861737
OETINGEN,49.1745826,6.9161261
Anderlecht,50.8390983,4.3296526
Wezembeek-Oppem,50.8440554,4.4871796
Sint-Andries,51.1973292,3.1810364
Schaerbeek,50.8676041,4.3737121
Wavre,50.7169694,4.610416
Woluwe-Saint-Lambert,50.8430448,4.4256732
Wetteren,50.9983603,3.8731041
Gooik,50.7979967,4.1018717
Evere,50.8720096,4.4034182
Edegem,51.1548066,4.4458312
Zelzate,51.2000036,3.8105002
Nivelles,50.5976885,4.3235854
Namur,50.4665284,4.8661892
HERMEE,50.7087526,5.6186068
Kapelle-op-den-Bos,51.0123705,4.3580446
Goesnes,50.440101,5.2217845
Froidmont,48.9630471,6.0811789
Moorslede,50.8900822,3.0732111
Londerzeel,51.0122466,4.2990729
Gent,51.0538286,3.7250121
Heule,50.8433241,3.2348571
Ledegem,50.8689785,3.1176026
Sint-Truiden,50.8269478,5.2034249
Tongeren,50.7806267,5.4639172
Gouy-lez-Piéton,50.4875628,4.3287132
Pont-à-Celles,50.515524,4.3827159
Grivegnée,50.6192957,5.6047622
Erpe-Mere,50.9226391,3.9459888
Athus,49.5615482,5.8306932
VICHTE,50.8354873,3.4048906
Neder-over-Heembeek,50.8925777,4.3768928
Bruxelles,50.8465573,4.351697
Liège Angleur,50.6128439,5.5953129
Waremme,50.6976875,5.2546191
Braine-l'Alleud,50.6828722,4.3692706
Huizingen,50.7481095,4.276727
Oudenaarde,50.8433705,3.6041443
Faimes,50.6652169,5.2627409
Sombreffe,50.5225432,4.5991932
AMPSIN,50.540238,5.286736
Gent Zwijnaarde,51.0003917,3.7167702
FLÉMALLE-HAUTE,50.5944698,5.4564323
Hoogstraten,51.3957301,4.7440872
Schoten,51.2516344,4.4980446
Kluisbergen,50.7782986,3.5212498
Saint-Nicolas,50.3022047,2.7767966
Bonheiden,51.0261294,4.5378218
Genk,50.9654864,5.5001456
Heist-op-den-Berg,51.0625158,4.7194311
Vurste,50.9459212,3.6845236
Oostkamp,51.1532024,3.2344535
Leuven,50.879202,4.7011675
Oostende,51.2258565,2.919496
Sint-Amandsberg,51.061875,3.7488657
Hombeek,51.0158695,4.4398366
Deurne,51.4281834,5.8281069
Kortrijk,50.8276429,3.2659884
Clabecq,50.6896854,4.221802
Lier,51.131069,4.5696516
Lasne,50.6860037,4.4844157
Zwevezele,51.0361481,3.2106957
Bredene,51.2389407,2.9724493
Wommelgem,51.2031044,4.5238022
Wijchmaal,51.1362086,5.414883
Libramont-Chevigny,49.9499099,5.4370892
Andenne,50.4893981,5.0965468
Glabbeek,50.8725203,4.9513009
Tienen,50.8084317,4.9464292
Galmaarden,50.7573013,3.9569
Liedekerke,50.8711313,4.0860754
Antwerp,51.2211097,4.3997081
Pont-a-Celles,50.515524,4.3827159
Aalst,50.9383226,4.0392147
Scherpenheuvel-Zichem Messelbroek,50.9952269,4.9385703
Drongen,51.0504639,3.6639157
Geraardsbergen Moerbeke,50.7522055,3.9177687
Gent Sint-Amandsberg,51.061875,3.7488657
Deinze,50.9840526,3.5274017
Merchtem,50.9593636,4.2335677
Eeklo,51.1844827,3.5665965
Ninove,50.8214549,4.0037422
Begijnendijk,51.0242187,4.7826308
Aarschot,50.9842743,4.836429
Landen,51.5073359,-0.12765
Schilde 's Gravenwezel,51.2624856,4.5556038
Kraainem,50.8425698,4.4692034
La Roche-en-Ardenne,50.1602833,5.5627594
Temse,51.1253635,4.2133313
Dilbeek,50.8441553,4.2656748
Molenbeek-Saint-Jean,50.8545959,4.338636
Ronse,50.7526199,3.6014477
Ellezelles,50.7287148,3.6942082
Crisnee,50.715885,5.397318
Bornem,51.0909633,4.2389677
Tielt-Winge,50.9352867,4.9100433
GISTOUX,50.6839808,4.6974182
La Sauvetat sur Lede,44.4701042,0.7301136
Grez-Doiceau,50.7386182,4.6962324
Couture-Saint-Germain,50.6740792,4.4785548
CHAUMONT,48.1111324,5.1395849
OTTENBURG,48.3184687,11.5974057
BOSSUT-GOTTECHAIN,50.7616193,4.6990692
SINT-JORIS-WEERT,50.8032485,4.6524453
NETHEN,50.7838206,4.675492
NODEBAIS,50.7725266,4.733891
BRUXELLES,50.8465573,4.351697
Lubbeek,50.8821422,4.8384431
Theux,50.5358359,5.8238359
Uccle,50.8035441,4.3338445
La Louvière Besonrieux,50.5117332,4.1959634
Profondeville,50.3762043,4.8675024
Bouge,50.4765668,4.8847574
Arlon,49.6834601,5.8167711
Corroy le Grand,50.6617107,4.6747213
Lede,50.9698619,3.9878758
Paliseul,49.9035269,5.1349041
Viroinval,50.0516361,4.6270287
Herzele,50.870107,3.8990281
Beerse,51.3135296,4.8375346
Malle,51.2970123,4.6933094
Opwijk,50.9690529,4.1896665
Herne,51.5380394,7.219985
Groot-Bijgaarden,50.8707084,4.2651493
Roosdaal,50.8341383,4.0972238
Geluwe,50.8114338,3.0771637
Vlezenbeek,50.8075574,4.2319001
Poperinge,50.8527569,2.7123231
Leke,51.1034654,2.8901998
Hennuyères,50.6386981,4.1715689
Quévy,50.3677506,3.9668522
Frasnes-lez-Buissenal,50.667755,3.6194481
Baudour,50.4815271,3.8312173
Affligem,50.9035063,4.1174675
Borsbeek,51.1928907,4.488953
Lummen,51.0028181,5.1977325
Kuurne,50.8597094,3.2733215
Gits,50.9968855,3.095616
Appels,51.0294474,4.0654325
Scherpenheuvel-Zichem,50.9801033,4.9740173
Rixensart,50.7122566,4.5216218
Braine-le-Chateau,50.6808817,4.266671
Embourg,50.591638,5.6105688
Puurs-Sint-Amands,51.066411,4.2812346
Zemst,50.9842166,4.4650814
Rochefort,45.9366592,-0.9616399
Turnhout,51.3233812,4.948461
Meise,50.9341625,4.3287322
Mortsel,51.1704119,4.4566996
Ruddervoorde,51.0953149,3.2048308
HERSELT,51.0554542,4.9018135
Booischot,51.0524068,4.7784936
Essen,51.4582235,7.0158171
Bierges,50.7111796,4.5894025
Grace-Hollogne,50.6323039,5.4768436
Aywaille,50.4758998,5.6763249
Boom,51.0873789,4.3667216
Les Bons Villers Villers-Perwin,50.5262014,4.4783773
Leopoldsburg,51.1220584,5.2639394
SINT-KATELIJNE-WAVER,51.0623243,4.5114278
Ans,50.6679862,5.5077543
BLAASVELD,51.0565194,4.3723517
VILLERS-L'EVÊQUE,50.703953,5.4408151
Itterbeek,50.8395994,4.2501187
Deerlijk,50.8394007,3.3627927
Avelgem,50.7775063,3.4496662
VIERSET-BARSE,50.4811242,5.2948879
Harelbeke,50.8446096,3.3093356
Perwez,50.6234469,4.8134719
Houtaing,50.6397485,3.67998
Erembodegem,50.92009,4.0587947
Hoevenen,51.3066168,4.4046996
Merksem,51.2438894,4.4397179
Zeveneken,51.1078751,3.9000296
Rumbeke,50.9333267,3.1541566
Ath,39.355589,-82.0610404
Knokke-Heist,51.3358203,3.3058781
Houthalen-Helchteren,51.0467933,5.3780416
Gentbrugge,51.0447236,3.7588813
Jambes,50.4589561,4.8723252
Salernes,43.5640073,6.2325706
Heestert,50.7821543,3.4120184
Helkijn,50.7300021,3.3837254
Zwevegem,50.8128396,3.3331679
Izegem,50.9137743,3.2091066
Stasegem,50.8313364,3.3134022
Houthulst,50.9737961,2.9438311
Rijkevorsel,51.3503707,4.758514
Staden,50.9705029,3.0014102
Meulebeke,50.9485823,3.2863899
Ichtegem,51.0874326,3.0294625
Ganshoren,50.8703273,4.307798
Mechelen,51.0281381,4.4803453
Lillois-Witterzée,50.6460596,4.3624394
Ixelles,50.8331141,4.3668279
Rhode-Saint-Genese,50.74503,4.3463687
Filly (Houffalize),50.1457005,5.6938043
Tervuren,50.8241883,4.5138824
Brasschaat,51.2900693,4.4917295
Beringen,51.0502026,5.2208091
Zele,54.755799,18.3414797
Hoboken,40.7433066,-74.0323752
Wilrijk,51.1700864,4.3942577
Wellen,49.6692928,6.4334568
Assebroek,51.1948254,3.2538029
Veltem-Beisem,50.9020979,4.6255138
Heverlee,50.8645908,4.6937736
Sint-Idesbald,51.1092741,2.6128803
Oostduinkerke,51.1156338,2.6812656
Nieuwpoort,51.1441919,2.7281913
Manage,50.5040159,4.2355599
Sirault,50.5054072,3.7882895
Ormeignies,50.5961254,3.7505822
Hautrage,50.4823864,3.7650049
Chièvres,50.5699999,3.7793729
NeufchÃteau,48.3553014,5.6948571
Liège Rocourt,50.678042,5.547616
Genappe,50.6108733,4.4510726
Beveren,51.212885,4.2490813
Vivegnis,50.697932,5.6527071
Villers-la-Ville,47.5477,6.46369
LIEGE,50.6450944,5.5736112
Noiseux,50.2982859,5.3724637
ANTHEIT,50.5512026,5.2358517
Wortegem-Petegem,50.8485315,3.5375547
Ternat,47.9058525,5.1266052
Lebbeke,51.0004013,4.1307711
Dendermonde,51.0312293,4.098112
Holsbeek,50.9217453,4.7557427
Quievrain,50.4048739,3.6829049
Bomal (Ramillies),50.6681389,4.8735246
Machelen (vlaams-brabant),50.9015206,4.4467845
Lievegem,51.1266908,3.5884951
Oud-Heverlee (Blanden),50.8278376,4.7181551
BERCHEUX,49.9020838,5.5365589
Remicourt,48.9511285,4.8758011
Watermael-Boitsfort,50.7981063,4.4176441
Vielsalm,50.2842154,5.9162783
Gembloux,50.5597273,4.6943126
Mamer,49.6266028,6.0229288
Nord-Est (Bruxelles),40.9509085,9.4958766
SCHAERBEEK,50.8676041,4.3737121
Bois-D'Haine,50.5023427,4.2156931
Westmalle,51.2970123,4.6933094
Olloy-sur-Viroin,50.0726831,4.607218
Frasnes-lez-Gosselies,50.5376477,4.4501525
Gozee,50.3332279,4.3515595
Molenbeek-St-Jean,50.8545959,4.338636
Keerbergen,51.0037524,4.6290719
Berlare,51.0301606,4.011347
Westende,51.1587721,2.7683368
Verlaine,50.6075114,5.3184439
Tohogne (Durbuy),50.3810361,5.481405
Zaventem Nossegem,50.8806901,4.5029559
Herent,50.9124734,4.6517148
Neupre,50.5431751,5.4901079
Genappe Bousval,50.6164197,4.5086646
Sint-Niklaas,51.1646685,4.1395124
Bernissart Harchies,50.4794445,3.6936
Verviers Petit-Rechain,50.6135424,5.8332027
Duffel,51.0957176,4.5061988
Antwerpen Borgerhout,51.2128453,4.4462406
LONGUEVILLE,50.7318957,1.8791461
BONLEZ,50.7020848,4.6895756
Overijse,50.7701622,4.5351806
COURT-SAINT-ÉTIENNE,50.6443208,4.5685766
BIEZ,50.7267076,4.7033973
DION-LE-MONT,50.6977135,4.6596906
Chaumont-Gistoux,50.6839808,4.6974182
La Hulpe,50.7313729,4.4893987
Diepenbeek,50.9078485,5.4200307
Verviers,50.59324,5.867828
Bassenge,50.7583596,5.6094772
Merelbeke,50.9957562,3.7456742
Hoegaarden,50.7879102,4.8809683
Ghent,51.0538286,3.7250121
Walhain,50.6180106,4.6953383
Fernelmont,50.5542257,4.9973659
Bertem,50.8659846,4.6306262
DION-LE-VAL,50.715963,4.6615912
Libin,49.9809464,5.2569017
Waregem,50.8868222,3.4323622
Mouscron,50.7436672,3.2142729
La Louvière Houdeng-Aimeries,50.4827327,4.1495773
Ieper,50.8516968,2.8914737
Wielsbeke,50.9114075,3.3604037
Zottegem,50.8694602,3.8092452
Mol,41.684672,14.595614
Retie,51.2675862,5.0843883
Geel,51.1610826,4.9903187
Heusden-Zolder,51.0233485,5.2750485
Diest,50.9845665,5.0528735
Sint-Joost-ten-Node,50.8508197,4.3691634
Ramillies Mont-Saint-André,50.6550272,4.8635811
Aische-en-refail,50.5992743,4.8355112
Tremelo,50.9919047,4.7040582
Boortmeerbeek,50.9782859,4.5758005
Courcelles,48.3732096,6.0376277
Houdeng-Goegnies,50.4880853,4.1574414
Jodoigne,50.724179,4.8679997
Ottignies-Louvain-la-Neuve,50.6654216,4.5674107
Sint-Agatha-Berchem,50.8649231,4.2946734
Wemmel,50.9080203,4.3056416
Antwerpen,51.2211097,4.3997081
Kampenhout,50.9492441,4.5711631
Oud-Heverlee Haasrode,50.8309839,4.7270448
Lokeren,51.1044488,3.9898689
Floreffe,50.4366874,4.7600394
Auderghem,50.8171712,4.4270852
Beauvechain,50.7808981,4.7717304
Fosses-la-Ville,50.3959512,4.6978935
MALONNE,50.4382517,4.7966661
Mettet,50.3212094,4.6584949
FRAIRE,50.2613846,4.5081639
LOYERS,50.4615162,4.9537227
Jemeppe-sur-Sambre,50.4629947,4.6545987
Namur Saint-Servais,50.4778694,4.8452444
Jette,50.8759585,4.3245702
Flobecq,50.7554999,3.7313238
Wondelgem,51.0886195,3.7123555
Seneffe,50.5292555,4.2566988
Chaudfontaine,50.5847922,5.6469688
GOZEE,50.3332279,4.3515595
BREENDONK,51.0424768,4.3244863
Beveren Melsele,51.2211394,4.2821446
PUURS-SINT-AMANDS,51.066411,4.2812346
Wéris,50.3266395,5.5307553
SCHAFFEN,51.0005768,5.0832217
Lembeek,50.7135392,4.2229681
Bachte-Maria-Leerne,51.0038237,3.5624453
FLÉMALLE,50.5994478,5.4699616
Maarkedal,50.7973072,3.642779
Borgerhout,51.2128453,4.4462406
Haaltert,50.8873933,3.99043
Rotselaar,50.9514713,4.7094054
Tenneville,50.0995825,5.4974652
Neufchâteau,48.3553014,5.6948571
Seraing Ougrée,50.591146,5.5439611
Saint-hubert,49.222747,6.3331945
PERONNES-LEZ-BINCHE,50.4328765,4.158959
THUMAIDE-BELOEIL,50.5404302,3.6304916
Couillet,50.391219,4.468631
Huldenberg,50.7892736,4.5833958
Zoersel,51.2624772,4.6921639
Willebroek Blaasveld,51.0565194,4.3723517
Egenhoven,50.8615433,4.6593904
Brussels,50.8465573,4.351697
Herstal Vottem,50.672893,5.5697617
Esneux Tilff,50.5695672,5.5843967
Hannut,50.6724649,5.0779916
Oupeye,50.7091889,5.6450671
Bever,50.7164481,3.943147
Sint-Lievens-Houtem,50.9204857,3.8589196
Oostakker,51.1001986,3.7644128
Oosterzele,50.9456388,3.8032713
Sint-Pieters-Leeuw,50.7811835,4.2452186
Ramsel,52.5141672,7.3777486
Schelle,51.1245635,4.3361875
Niel,51.1098649,4.3303396
Kieldrecht,51.2888268,4.1758418
Heusden,51.6888859,5.165507
Buggenhout,51.0113101,4.1927964
Mons,50.4549568,3.951958
La Louviere,50.479487,4.1852682
Binche,50.4103004,4.165163
Rixensart Genval,50.7220137,4.5029938
Crisnée,50.715885,5.397318
COUTISSE,50.4636595,5.1169603
Saint-Gilles,49.2801594,3.6756348
Donceel,50.6478971,5.3199408
Aalter,51.083894,3.4485192
Middelkerke,51.183317,2.806352
Vleteren,50.7533476,2.6456516
Knokke,51.3464863,3.2876314
Wuustwezel,51.38525,4.5651743
Blankenberge,51.3170028,3.133658
Verviers Polleur,50.5399885,5.8787388
WÉPION,50.4212957,4.8633768
Aubange,49.5671953,5.8044993
Halanzy,49.5590364,5.7422467
Habay-la-Neuve,49.730978,5.6528207
Virton,49.5605149,5.5196466
Apach,49.4591762,6.3743525
Thonne-la-Long,49.5622474,5.4258429
JEMEPPE,50.6180868,5.4997184
Villers-le-Bouillet,50.5753715,5.2607066
Soignies,50.579203,4.0685604
Ferrières Werbomont,50.3800099,5.686798
SCLAYN,50.4897139,5.0284735
MONS-LEZ-LIÈGE,50.6224546,5.4600597
Xhoris,50.443983,5.602069
HANEFFE,50.6386942,5.3191175
Oupeye Haccourt,50.7339784,5.6667674
Aubange Halanzy,49.5590364,5.7422467
Vilvoorde Koningslo,50.9140818,4.3840319
Gavere,50.9292335,3.6614192
La Louvière Haine-Saint-Pierre,50.4547557,4.2000181
CLAVIER-STATION,50.4289012,5.3260569
Braine-le-Château,50.6808817,4.266671
Oud-Heverlee Sint-Joris-Weert,50.8032485,4.6524453
LONZEE,50.5533536,4.7273547
ESSENBEEK,50.7203058,4.2587478
Ciney,50.2964911,5.1008664
Eupen,50.6305665,6.0312717
OISQUERCQ,50.6700726,4.2167874
Olen,51.1438611,4.8597257
Bois-de-Lessines,50.6953023,3.8856306
Philippeville,50.196268,4.5436078
Jalhay,50.5592528,5.9647526
BONNERT,49.7107729,5.8190143
Kayl,49.4861302,6.041472
Montignies-sur-Sambre,50.4006804,4.4803675
Châtelet,48.8587782,2.3474106
Tessenderlo,51.0681628,5.0893974
Oordegem,50.9574043,3.90209
SAINT-GEORGES-SUR-MEUSE,50.6000654,5.3584259
SAINT-GEORGES,50.3583949,2.0874312
SINT-AGATHA-BERCHEM,50.8649231,4.2946734
Schepdaal,50.8348548,4.1919739
Bertrix,49.8546564,5.2529266
OTHÉE,50.7159281,5.4680939
Diksmuide,51.0333408,2.8647185
Mariakerke,51.0726885,3.6750846
Wijtschate,50.7856902,2.8826178
Onkerzele,50.7820091,3.9109582
san pedro del pinatar,37.8353328,-0.7916121
Ertvelde,51.1793505,3.7471789
Orihuela-Costa,37.9237214,-0.7453376
Oedelem,51.1690329,3.3388064
Russeignies,50.7447633,3.5309528
LIBRAMONT-CHEVIGNY,49.9499099,5.4370892
Lennik,50.8085632,4.1648626
Huise,50.8988246,3.5907777
Braives,50.6300711,5.1435257
Desselgem,50.8866327,3.3497336
Borgloon,50.8024529,5.3435704
VEZIN,50.4966018,5.0114611
Bousval,50.6164197,4.5086646
Beyne-Heusay,50.6220566,5.6534141
Beyne-Heusay Queuedu-Bois,49.73126,3.64987
Berchem,50.8649231,4.2946734
SINT-AMANDS,51.0560497,4.201114
SINAAI,51.15689,4.04172
Colfontaine,50.4056635,3.8513958
Mont-St-Guibert,50.6365628,4.6127019
Chalandri,38.0215202,23.7984139
Marilles,50.7072943,4.9529173
Herseaux,50.722638,3.2340757
Sint-Eloois-Vijve (Waregem),50.9059283,3.4038085
Noorderwijk,51.141115,4.8402651
Bouffioulx,50.390213,4.5151961
Monceau-sur-Sambre,50.4170168,4.382402
Gistel,51.1542785,2.961541
Kapellen,51.3324502,4.4305838
MALDEREN,51.0198436,4.2437819
WARNANT-DREYE,50.5957014,5.2215442
Flémalle Mons-lez-Liège,50.6224546,5.4600597
WALHAIN,50.6180106,4.6953383
Berloz,50.6978415,5.2140163
Mechelen-Zuid,50.9948982,4.4681026
Anthisnes,50.481662,5.5225261
Nassogne,50.1287359,5.3418985
Antwerpen Hoboken,51.1794946,4.3617847
Machelen,50.9015206,4.4467845
Sambreville,50.4495194,4.6043769
Charleroi-Marchienne-au-Pont,50.4089708,4.4023404
Frameries,50.4096511,3.8933015
Mouscron Herseaux,50.722638,3.2340757
Bailleul,50.7396668,2.7349286
Wandre,50.6702136,5.6598274
TILFF,50.5695672,5.5843967
Koekelberg,50.8606042,4.3315503
Corroy-le-Grand,50.6617107,4.6747213
Héron,50.5508203,5.0971783
WALSHOUTEM,50.7210409,5.0882575
Mons Ghlin,50.4760502,3.903746
Lommel,51.2305657,5.3076895
Reet,51.1017566,4.4129446
Tubize,50.69302,4.204696
VISE,50.7347797,5.6936397
Nandrin,50.5162261,5.3992564
Chiny,35.000074,104.999927
Hulshout,51.0749541,4.7967947
Lessines,50.7123036,3.8301131
Leuven Heverlee,50.8645908,4.6937736
Paal,51.3534316,4.1072473
Rumes Taintignies,50.549906,3.3410768
Florennes,50.2514227,4.6030187
Bruxelles2,50.8465573,4.351697
Tournai Templeuve,50.6449107,3.2831228
Péruwelz,50.5332377,3.563667
Tielt,50.9999648,3.3414263
Grandrieu,44.7841483,3.6341118
DURBUY,50.3524116,5.456248
Kelem,41.7057446,33.0347729
Templeuve,50.5326276,3.1740541
Forest,41.5329762,-79.2640912
's Gravenwezel,51.2624856,4.5556038
Strée,50.2766332,4.2980462
Houyet Celles,50.2312617,5.0058339
Aalst Erembodegem,50.92009,4.0587947
Zaventem,50.8806207,4.4730008
SOUGNÉ-REMOUCHAMPS,50.4947283,5.7081119
NEDERBRAKEL,50.8030596,3.7647859
Leuze-En-Hainaut,50.597156,3.6273938
Musson,49.5580794,5.705881
Ekeren,51.2781955,4.4209857
Nivelles Baulers,50.6122598,4.3531816
Spa,50.4920654,5.8627569
Herk-de-Stad,50.9222911,5.1884302
Sainte-Ode,50.0166761,5.5595141
Horebeke,50.8348628,3.6920346
Veurne,51.0709569,2.6548505
Stekene,51.2104744,4.0240413
ROCOURT,48.1075871,5.7431208
Antwerpen Merksem,51.2438894,4.4397179
Gingelom,50.7515348,5.1324098
Peruwelz,50.5332377,3.563667
Kortenberg,50.8953581,4.5656834
Ottignies-louvain-la-neuve,50.6654216,4.5674107
Dworp,50.7303901,4.2985231
Oud-Heverlee,50.8376275,4.6629253
Lubbeek Linden,50.895349,4.7672872
Blégny Saive,50.6526283,5.6819662
Tintigny,49.6820986,5.5185152
Koksijde,51.1092282,2.6352757
Presles,48.8769135,-0.781373
Viersel,51.187272,4.6503063
SINT-TRUIDEN,50.8269478,5.2034249
Laarne,51.0406809,3.8599035
Heers,50.7472468,5.304934
Haillot,50.4405961,5.1491871
Marcinelle,50.3977245,4.4442531
SOLIÈRES,50.4852183,5.1812182
Vance,36.3747423,-78.4140945
Neufchateau,48.3553014,5.6948571
Ougrée,50.591146,5.5439611
La Louvière Strépy-Bracquegnies,50.474474,4.1207031
Visé,50.7347797,5.6936397
Bissegem,50.8227711,3.2285861
Wichelen,51.0020843,3.9806438
Saint-Hubert,49.222747,6.3331945
Bouillon - Bellevaux,49.8402245,5.1102147
Fléron,50.6168354,5.6832219
Peronnez-Lez-Binche,50.41155,4.16469
Braine l'Alleud,50.6828722,4.3692706
SAINT-GILLES,49.2801594,3.6756348
Meerhout,51.1317433,5.0772388
HERSTAL,50.6650412,5.629981
COURT-SAINT-ETIENNE,50.6443208,4.5685766
Zulte,50.9400485,3.4753055
WAKKEN,50.930782,3.3978669
Oudenburg,51.2015647,3.0063239
Saint-Josse-ten-Noode,50.8508197,4.3691634
Sint-Gillis-Waas,51.2179895,4.1286101
Ternat Sint-Katherina-Lombeek,50.8726659,4.1535568
Lochristi,51.0979284,3.8355614
Assenede,51.2275942,3.7532864
Loppem,51.1557488,3.1955523
Boussu,50.4274741,3.7942686
ZELEM,50.9788799,5.1026566
La Louvière Saint-Vaast,50.4522661,4.1604745
MEERBEEK,50.8822337,4.5857181
CHAPON-SERAING,50.609673,5.2734472
SINT-NIKLAAS,51.1646685,4.1395124
LAMORTEAU,49.5262083,5.4795124
GENTBRUGGE,51.0447236,3.7588813
Sint-Lenaarts,51.3473203,4.6787433
Halen,50.9382257,5.10738
Couthuin,50.5330937,5.1322912
BORSU,50.3887582,5.3231388
Jabbeke,51.1823049,3.0934604
Ramillies,50.2060873,3.2610415
Dilbeek Sint-Martens-Bodegem,50.8628418,4.215204
POTTES,50.7314164,3.4050325
Itegem,51.1030959,4.7294471
Berlaar,51.1030373,4.6640388
Wervik,50.7782244,3.0439698
Oostnieuwkerke,50.9404849,3.0592908
Ruiselede,51.0630592,3.3787806
Otegem,50.8085335,3.4218217
Gent Mariakerke,51.0726885,3.6750846
WARZÉE,50.4487876,5.427096
De Haan,51.2671138,3.0408376
Herve,50.63916,5.7931012
Oud-Turnhout,51.3178319,4.9817086
Marousi,38.0546653,23.8081533
Zeebrugge,51.3312211,3.207561
De Pinte,50.9924205,3.6495958
Braine-le-Comte,50.6107057,4.1360702
SINT-AMANDSBERG,51.061875,3.7488657
Hamois Schaltin,50.3579006,5.1237159
Bassilly,50.6724203,3.9360497
Hoeselt,50.8500788,5.4865309
GRANDMETZ,50.6219421,3.6332056
VAUX-ET-BORSET,50.6131812,5.2317617
Havelange,50.3870946,5.23958
Charleroi Jumet,50.4421323,4.4350275
Vosselaar,51.3129153,4.8878026
Taviers,50.6170592,4.9318579
Meslin-l'Evêque,50.6485784,3.8480962
NECHIN,50.6669028,3.2689867
Kruisem,50.9085536,3.5648916
Hever,51.1934653,0.1104521
Lille Poederlee,51.2267185,4.8359528
Tubize Clabecq,50.6896854,4.221802
Braine-le-ChÃteau,50.6808817,4.266671
Ittre,50.6501961,4.2637077
Harmignies,50.4076446,4.0177899
Jemeppe (-sur-meuse),50.6180868,5.4997184
Jauchelette,50.6867069,4.8435055
Saint-gilles,49.2801594,3.6756348
Wachtebeke,51.1701927,3.8574284
Knokke-Heist Knokke,51.3433866,3.2884738
Plombières,50.7377318,5.9611134
Zaventem Sterrebeek,50.8613343,4.5124544
BIERGHES,50.6955911,4.1172805
Pepingen,50.7598483,4.1576993
Enghien,50.6928204,4.038373
SINT-KATHERINA-LOMBEEK,50.8726659,4.1535568
Sivry-rance,50.1676011,4.2118155
Ciply,50.4192687,3.9438128
Langdorp,50.9934543,4.8697373
Bruxelles ville,50.8465573,4.351697
Menen,50.7937353,3.1670406
Honnelles,50.352089,3.731019
Tournai,50.6056458,3.3878179
Eghezée,50.5917416,4.9049523
Wanfercée-Baulet,50.4723768,4.5891745
Wijnegem,51.2270761,4.5225318
Chastre,50.6082727,4.6385565
Pipaix,50.582865,3.575887
Ruisbroek,50.7900129,4.2980824
Grimbergen Strombeek-Bever,50.9083929,4.3516713
Strombeek-Bever,50.9083929,4.3516713
Zaventem Sint-Stevens-Woluwe,50.8692776,4.4528019
GrÃce-Hollogne Horion-Hozémont,50.6147852,5.3879109
WESTENDE,51.1587721,2.7683368
SINT-GILLIS-WAAS,51.2179895,4.1286101
Yvoir,50.3260425,4.877815
St-Vith,50.2803881,6.1258953
Brecht,49.9810924,6.4357583
Sint-Pieters-Woluwe,50.8370253,4.4274636
Muizen,51.0108505,4.5143485
Destelbergen,51.0556204,3.7978887
GREMBERGEN,51.0540034,4.1070284
Asse Zellik,50.8842475,4.2744185
Blanmont (Chastre),50.6219647,4.6399757
Estinnes-au-Val,50.4127908,4.1064835
NEUVILLERS,49.9012882,5.3540089
Messancy,49.5949862,5.8145736
REBECQ,50.6735582,4.1350276
Quaregnon,50.4350247,3.8643685
Bassevelde,51.2311917,3.6789952
MORLANWELZ-MARIEMONT,50.454445,4.2438314
Grand-Halleux,50.3262753,5.9072517
ERNAGE,50.5941971,4.6739886
PIRONCHAMPS,50.4285932,4.526056
VARSENARE,51.1998384,3.13581
Mont-de-l'Enclus,50.7456511,3.5110542
Burcht,51.2028046,4.3416362
Ramillies Autre-Eglise,50.6631583,4.9249295
Grobbendonk,51.1919904,4.7385027
Menen Rekkem,50.7861863,3.1627429
SINT-GENESIUS-RODE,50.74503,4.3463687
LÉGLISE,49.8003582,5.5381496
Aarschot Gelrode,50.9655011,4.8029673
Riemst,50.8115825,5.5978716
Scherpenheuvel-Zichem Testelt,51.0091661,4.951587
Verviers Lambermont,50.5873088,5.8350761
Dison Andrimont,50.6141395,5.8828177
Fléron Romsée,50.6069188,5.6658323
Soumagne,50.6147718,5.739941
Denderleeuw,50.8881384,4.0625112
Maaseik,51.0947181,5.791733
Antwerpen Deurne,51.20849,4.4719297
Nijlen,51.1611887,4.6709517
Zonhoven,50.9909835,5.3677683
Saint-Léger Meixle-Tige,49.6176316,5.7205613
Fize-Fontaine,50.5849842,5.2835083
Sint-Stevens-Woluwe,50.8692776,4.4528019
Bavegem,50.9445843,3.866374
REDU,50.0077873,5.1601828
Sint-Denijs,50.7517122,3.3683921
Pittem,50.9999838,3.2622548
Nieuwerkerken,50.8744157,5.1909602
Sint-Gillis-bij-Dendermonde (Dendermonde),51.0195213,4.1105542
VELLEREILLE-LES-BRAYEUX,50.3790081,4.1507915
Chaudfontaine Vaux-sous-Chèvremont,50.6018004,5.6339283
La Louvière Houdeng-Goegnies,50.4880853,4.1574414
La Louvière Maurage,50.4540886,4.103814
Vottem,50.672893,5.5697617
LEVAL-TRAHEGNIES,50.416547,4.218073
HOLLOGNE-AUX-PIERRES,50.6387497,5.4758701
BOIS-ET-BORSU,50.3946271,5.3302671
LANDENNE,50.5142495,5.0646275
Manage-Bois-d'Haine,50.5023427,4.2156931
Corroy-le-ChÃteau,50.5359706,4.6546979
Kaprijke,51.2185075,3.6190769
Zoutleeuw,50.8415653,5.1186447
Waasmont,50.7287476,5.065336
Kalmthout,51.3832723,4.4763255
Sint-Michiels,51.1884619,3.2111722
Vlekkem,50.9359916,3.9309949
Idegem,50.8006254,3.92648
Heppen,51.1088561,5.2275686
Knokke-Zoute,51.3505982,3.312506
Grandmetz,50.6219421,3.6332056
Merlemont,50.1728667,4.6072911
Butgenbach,50.4267259,6.2053573
Langemark-Poelkapelle,50.9122567,2.9338635
Angleur,50.6128439,5.5953129
ENGIS,50.5626193,5.3881906
Oostrozebeke,50.9343454,3.3468206
Milmort,50.6904632,5.5929155
MATER,37.0385985,9.6676974
Schriek,51.0248817,4.6908515
Zonnebeke,50.8731885,2.9874678
Wilsele,50.9114018,4.7131616
Testelt,51.0091661,4.951587
Herzele Hillegem,50.895806,3.853568
Roosdaal Onze-Lieve-Vrouw-Lombeek,50.8220387,4.1119573
SINT-PIETERS-LEEUW,50.7811835,4.2452186
Velaines,48.7033589,5.3001073
Harelbeke Bavikhove,50.8754034,3.3113418
FALISOLLE,50.4182456,4.621259
Arquennes,50.5679939,4.2746041
Sint-Job-In-'t-Goor,51.2919982,4.5772717
Attert,49.7514982,5.7872217
Hoeilaart,50.7674846,4.474407
Deurle,51.0074803,3.6062435
Clavier,44.9387991,6.7502942
Bouillon,43.4945306,-0.4981465
Balen,51.1727481,5.1941389
Tilff,50.5695672,5.5843967
Stabroek,51.3351542,4.3704095
Rendeux,50.2143667,5.5222221
Orp-Jauche,50.7001001,4.9889872
Soignies Casteau,50.5130195,4.0031319
Manage La Hestre,50.4738724,4.2358174
Ecaussinnes,50.5611045,4.1704138
Nazareth,32.7066301,35.3048161
CLERMONT,49.3780921,2.4141907
REET,51.1017566,4.4129446
Marche-en-Famenne,50.2265147,5.3407365
Hannut Moxhe,50.629993,5.0813162
SAINT-JOSSE-TEN-NOODE,50.8508197,4.3691634
Blandain,50.6248967,3.303531
Melen,48.539927,2.6608169
Retinne,50.6304629,5.6976792
Gullegem,50.8418565,3.2045747
Bolderberg,50.9880047,5.2747564
Eernegem,51.1279829,3.0233013
Sijsele,51.2004843,3.3235879
Torhout,51.0587812,3.0911518
Bierbeek Korbeek-Lo,50.8596758,4.7627977
St-Genesius-Rode,50.74503,4.3463687
Rhode-St-Genèse,50.7479462,4.3619738
Anzegem,50.8325437,3.478405
Ninove Aspelare,50.8421637,3.9584406
Tournai Froidmont,50.57792,3.3287795
Dour,50.3963781,3.7786762
Quiévrain,50.4048739,3.6829049
PÃturages,50.4136507,3.8629223
Soignies Neufvilles,50.5683075,4.0029098
Merbes-le-Chateau,50.3234814,4.1822727
Gent Sint-Denijs-Westrem,51.0199405,3.6676767
Antwerpen Wilrijk,51.1700864,4.3942577
Wingene,51.068089,3.2847683
Brugge Sint-Kruis,51.2142018,3.2506508
Malmedy,50.4265348,6.0276059
Beigem,50.9527061,4.3638682
Bierbeek,50.8241245,4.7714318
Ferrières,49.590023,2.515821
Manhay,50.29305,5.6761462
Sprimont Louveigné,50.5305178,5.7104368
Westmeerbeek,51.0603638,4.8351334
Westerlo,51.086694,4.9168675
Haaltert Denderhoutem,50.8717796,4.0180839
Habay Marbehan,49.7255479,5.536235
Jumet,50.4421323,4.4350275
Courcelles Trazegnies,50.4665295,4.3317415
SAINT-LÉGER,50.1863917,2.8583578
ISNES,50.5114722,4.7463665
Oupeye Heure-le-Romain,50.7316969,5.6295554
Wavre Limal,50.6930684,4.5736305
Braine-l'Alleud Ophain-Bois-Seigneur-Isaac,50.6658971,4.3480069
Welkenraedt,50.6607788,5.9732784
BIESME,50.4027329,4.6875461
ARSIMONT,50.4273479,4.6388177
HAM-SUR-SAMBRE,50.44449,4.6734915
Rebaix,50.660198,3.7836911
Vorselaar,51.2023448,4.769482
PONT-DE-LOUP,50.4173702,4.5459892
Sint-Laureins,51.2417048,3.5238418
Ruien,50.7739701,3.4860074
Astene,50.9845547,3.5628186
Waasmunster,51.1097147,4.0842158
Lexy,49.502997,5.7302118
Pontpierre,49.0425445,6.6423377
Avioth,49.5675532,5.3910039
Melle,44.5620476,7.32049
LICHTAART,51.2240538,4.9198927
Léglise Assenois,49.8029977,5.4625426
Damme,51.2553021,3.2920911
Lille,50.6365654,3.0635282
Herentals,51.1855307,4.8346287
Dessel,51.2395713,5.113243
Egio,38.2505699,22.0852909
Athènes,37.9755648,23.7348324
Chalkoutsion,N/A,N/A
Boezinge,50.8961176,2.8556799
Morlanwelz,50.4509843,4.2523562
Lodelinsart,50.431853,4.4489421
Chênée,50.6111024,5.619261
Thuin,50.321899,4.2958471
Buvrinnes,50.3897538,4.2055425
Brugge Sint-Michiels,51.1884619,3.2111722
Seraing Boncelles,50.5702815,5.5378515
HULSTE,50.8819668,3.2955857
Sint-Genesius-Rode,50.74503,4.3463687
Habay,49.7356402,5.5929283
Nothomb,49.7717529,5.7861375
WOLUWE-SAINT-LAMBERT,50.8430448,4.4256732
Louvain-La-Neuve,50.6682012,4.6128839
Lanaken,50.8892784,5.6513208
MOLENBEEK-SAINT-JEAN,50.8545959,4.338636
Wierde,50.4257472,4.952557
Berchem-Sainte-Agathe,50.8649231,4.2946734
Boutersem,50.8473461,4.8336178
SEILLES,50.4984249,5.0805501
SINT-LIEVENS-HOUTEM,50.9204857,3.8589196
Rumst,51.0792853,4.4240472
COMBLAIN-FAIRON,50.4528305,5.5624692
Engis,50.5626193,5.3881906
KESTER,40.5541152,-111.8813233
Robertville,50.4550294,6.1224661
Vedrin,50.5019599,4.8742389
As,26.4073841,93.2551303
Hofstade,50.9912146,4.4938796
SINT-LAMBRECHTS-WOLUWE,50.8430448,4.4256732
Antwerpen 1,51.3223778,4.9380864
NEDER-OVER-HEEMBEEK (BRU.),50.8925777,4.3768928
MECHELEN-BOVELINGEN,50.7427937,5.2629291
POEDERLEE,51.2267185,4.8359528
MORNIMONT,50.4555129,4.7043344
MONTEGNÉE,50.6423367,5.5186082
Tollembeek,50.741227,4.0067667
LANTIN,50.6879619,5.5234944
Woluwe-St-Lambert,50.8430448,4.4256732
Marke,43.3458388,13.1415872
Court-saint-©tienne,50.6447367,4.5728352
Meerdonk,51.2588943,4.1511549
Lubbeek Binkom,50.8721329,4.8840011
KOBBEGEM,50.9091629,4.2496669
La Calamine,50.7154957,6.013341
Aubel,50.7041498,5.8585553
BURCHT,51.2028046,4.3416362
SAINT-HUBERT,49.222747,6.3331945
GROYNNE,50.4699606,5.0817382
HASTIÈRE-LAVAUX,50.2173396,4.8258835
Saint-Ghislain,50.4477484,3.8195241
Schulen,50.956061,5.1784982
Hooglede,50.9785478,3.0823431
Maasmechelen,50.9635024,5.696445
Leefdaal,50.847321,4.5913344
Libin Anloy,49.9499043,5.2215609
Herdersem,50.9708754,4.0669578
Bertem Leefdaal,50.847321,4.5913344
Varsenare,51.1998384,3.13581
Saint-Léger,50.1863917,2.8583578
Kessel,51.2912483,6.05734
Herzele Steenhuize-Wijnhuize,50.8411146,3.8903745
Charleroi Marcinelle,50.3977245,4.4442531
FANZEL,50.3225375,5.5738355
Onze-Lieve-Vrouw-Waver,51.0624896,4.5798347
Kortenaken,50.906611,5.0622937
Paliseul Opont,49.9348514,5.1201252
BAMBRUGGE,50.9199007,3.9288424
VRASENE,51.2191283,4.194377
Ferrieres,49.590023,2.515821
Dinant,50.2591813,4.9130588
Lierde,50.8064253,3.8361032
Glyfada,37.8615966,23.7545902
Derveni,40.7279969,22.9805872
Nea Artaki,38.5141241,23.6370915
PIÉTRAIN,50.7255018,4.9175477
FLÉNU,50.4367571,3.8878381
PUURS,51.0762086,4.2817075
Hemiksem,51.1430192,4.3409826
Zedelgem,51.1389736,3.1395587
Dison,50.611374,5.854735
Rebecq,50.6735582,4.1350276
Meldert,50.9356266,4.13396
Rio,-22.9110137,-43.2093727
Palaio Faliro,37.9282756,23.6951675
Malderen,51.0198436,4.2437819
Heist-aan-Zee,51.3374355,3.2399794
Aartrijke,51.1191622,3.090309
Fontainel'Evêque,50.4117794,4.3246322
Fontaine-l'Eveque,50.4117794,4.3246322
JUPILLE-SUR-MEUSE,50.6431909,5.6301266
DÉNIA,38.8408382,0.1061105
MOLENBEEK ST JEAN,50.8545959,4.338636
Farciennes,50.4320923,4.5467978
Anderlues,50.4042517,4.2640648
Souvret,50.450999,4.350827
WANDRE,50.6702136,5.6598274
Roux,50.4427818,4.3948512
Burdinne,50.5812607,5.072436
Cheratte,50.6840338,5.6707671
Froidchapelle,50.1627515,4.3266017
Schorisse,50.8061799,3.6782376
Seilles,50.4984249,5.0805501
Berchem (Antwerpen),51.1943524,4.4329972
Humain,50.2053202,5.2552435
Deux-Acren,50.7307336,3.8522036
Lessines - Deux-Acren,50.7307336,3.8522036
Écaussinnes,50.5611045,4.1704138
Genval,50.7220137,4.5029938
WOLUWE-SAINT-PIERRE,50.8370253,4.4274636
Braine-l'Alleud Lillois-Witterzée,50.6460596,4.3624394
Alsemberg,50.7419942,4.3383125
GODINNE,50.3505281,4.875987
Mourcourt,50.6530409,3.445164
Hamme-Mille,50.7797105,4.7192473
Jupille-sur-Meuse,50.6431909,5.6301266
ecaussinnes,50.5611045,4.1704138
TOURNAI,50.6056458,3.3878179
Rocourt,48.1075871,5.7431208
Bulskamp,51.0437813,2.6496218
Braine-L'Alleud,50.6828722,4.3692706
LIMAL,50.6930684,4.5736305
SART-RISBART,50.6820625,4.7609311
Adegem,51.2035291,3.4858471
Asse,50.9094333,4.2015646
Terhulpen,50.7313729,4.4893987
Assesse,50.3718261,5.0217639
DORINNE,50.3173377,4.97325
HUY,50.5180856,5.2408138
RUIEN,50.7739701,3.4860074
Hélécine,50.7514034,4.9822395
Éghezée,50.5917416,4.9049523
Averbode,51.0300217,4.9797369
BERCHEM-SAINTE-AGATHE,50.8649231,4.2946734
SCHELDERODE,50.9698809,3.7131906
BRAINE-LE-CHÂTEAU,50.6808817,4.266671
WOLUWÉ-SAINT-PIERRE,50.8370253,4.4274636
Kasterlee,51.2489446,4.9891815
RHODE-SAINT-GENÈSE,50.7479462,4.3619738
Moorsele,50.8518106,3.1489107
Kozen,34.618504,135.745146
Zwalm,50.8793307,3.719334
Asper,50.9135295,3.6517496
MEETKERKE,51.235452,3.1513265
DUDZELE,51.2747463,3.2292277
Lot,44.6249918,1.6657742
TIHANGE,50.527586,5.259369
Galmaarden Tollembeek,50.741227,4.0067667
Bekkevoort,50.9338977,4.984617
NIL-SAINT-VINCENT-SAINT-MARTIN,50.6407147,4.6743285
MOIGNELÉE,50.4378354,4.5885625
Haacht,50.9769474,4.6383121
Kinrooi,51.1431332,5.7414776
Bastogne,50.0023102,5.7173386
Peer,51.10874,5.4491572
Vaux-sur-Sûre,49.9104994,5.5663094
Namur Bouge,50.4765668,4.8847574
Nossegem ,50.8806901,4.5029559
Clavier Ocquier,50.3966356,5.3961397
Merksplas,51.3579924,4.8627355
Bilzen,50.8707787,5.5181089
Xhendremael,50.7043671,5.4805775
Bellegem,50.7777862,3.2799523
BELLEVAUX,46.2575,6.531944
WIDEUMONT VILLAGE,49.9258021,5.4905273
La Bruyère Rhisnes,50.5033113,4.8045982
La Bouverie,43.5008734,6.6443455
Alveringem,51.0150603,2.7220444
Heist (Knokke-Heist),51.3433866,3.2884738
LIEZELE,51.0595696,4.280892
Froyennes,50.6195489,3.3569842
TEMPLEUVE,50.5326276,3.1740541
Knesselare,51.1392692,3.412339
Kortrijk Heule,50.8433241,3.2348571
SINT-BAAFS-VIJVE,50.9100793,3.3909447
HEVILLERS,50.6262708,4.6140506
Zemst Eppegem,50.961429,4.4556575
Roosdaal Borchtlombeek,50.8486371,4.1371467
Liernu,50.5821124,4.8311032
PÉRUWELZ,50.5332377,3.563667
Hargimont,50.1825868,5.3094652
Dikkelvenne,50.9176673,3.6894495
Chapelle-lez-Herlaimont,50.4713265,4.2804202
Beaumont,30.0860459,-94.1018461
BRESSOUX,50.6412964,5.6111443
Latour,43.2006,1.28175
GRÂCE-HOLLOGNE,50.6323039,5.4768436
Baisy-Thy,50.5930799,4.4653124
SCRY,50.4994239,5.3766336
St-Niklaas,51.1646685,4.1395124
Linkeroever (Antwerpen),51.2236611,4.3861949
NIMY,50.4759358,3.9545894
Marchienne-au-Pont,50.4089708,4.4023404
ANHÉE,50.3101511,4.8776042
QUIÉVRAIN,50.4048739,3.6829049
PÂTURAGES,50.4136507,3.8629223
Haasrode,50.8309839,4.7270448
Hermalle-sous-Argenteau,50.7106536,5.6806787
Dampremy,50.4186181,4.4322464
Linkebeek,50.7732003,4.3359991
Gent Desteldonk,51.1221778,3.7836111
Machelen Diegem,50.8961258,4.4342724
Erpe-Mere Burst,50.9136525,3.9203695
Macquenoise,49.9755399,4.1802891
Gilly (Charleroi),50.4250323,4.4865026
Knokke centrum,51.358425,3.3505914
Bruxelles  1,43.4249245,5.2422373
MELLES,42.8684519,0.7582741
BRAY,49.10663,0.84147
Vilvoorde Peutie,50.9271252,4.4545868
Zwijndrecht,51.82052,4.6257315
Zemst Weerde,50.9722782,4.479869
EUGIES,50.3906692,3.8883703
Saint Ghislain,50.4477484,3.8195241
Limelette,50.6805002,4.5731775
Limal,50.6930684,4.5736305
Wolvertem,50.9510266,4.3085198
Brussel,50.8465573,4.351697
Poppel,51.0410607,8.4421463
CARLSBOURG,49.8947611,5.0830529
Ressaix,50.4238135,4.1910898
Berendrecht,51.3455396,4.319401
St-Josse-Ten-Noode,50.8508197,4.3691634
Morlanwelz Carnières,50.4431586,4.2548832
THIAUMONT,49.7159959,5.7291343
FONTAINE-L'ÉVÊQUE,50.4117794,4.3246322
Villersla-Ville Sart-Dames-Avelines,50.56863,4.49221
LIBRAMONT,49.9499099,5.4370892
BELLEM,51.0889641,3.4911379
Sprimont Gomze-Andoumont,50.545063,5.6835773
Trooz Fraipont,50.5664059,5.7227298
Schendelbeke,50.7968671,3.8989486
Houthalen,51.031137,5.3720755
Gierle,51.2675145,4.867558
LA LOUVIÈRE,50.479487,4.1852682
Charleroi Gilly,50.4250323,4.4865026
Hornu,61.6496004,23.7311377
TRANSINNE,50.0004466,5.2026639
Lesdain,50.1012856,3.2664049
Huccorgne,50.56759,5.1647622
TERHAGEN,51.078277,4.3993623
Quenast,50.670891,4.1578662
Erpent,50.4473127,4.900545
Humbeek,50.9673676,4.3794122
Walshoutem,50.7210409,5.0882575
Hoeleden,50.8682843,4.9879425
Wommersom,50.8130597,5.0173851
WANNEGEM-LEDE,50.8899749,3.558791
Aalbeke,50.7788603,3.2294574
Duinbergen,51.3420541,3.2625765
Lauwe,50.7945667,3.1857233
Houffalize,50.1323761,5.7886928
Léglise,49.8003582,5.5381496
Luttre,50.5092533,4.3927418
STOUMONT,50.4069504,5.80836
Kontich,51.1353297,4.4454784
Aywaille Sougné-Remouchamps,50.4947283,5.7081119
KNOKKE-ZOUTE,51.3505982,3.312506
Trazegnies,50.4665295,4.3317415
ENGHIEN,50.6928204,4.038373
COURCELLES,48.3732096,6.0376277
Olmen,51.1424029,5.1487716
Aalst Meldert,50.9356266,4.13396
Bouwel,51.1695534,4.7428091
Haine-St-Pierre,50.4547557,4.2000181
Sluis,51.3256629,3.5166294
Moerbeke,50.6918534,2.5155576
Scheldewindeke,50.9381419,3.784777
Rijmenam,51.0010818,4.5842221
Florenville,49.6993182,5.3100518
PETITVOIR,49.844612,5.3775541
BAILLAMONT,49.8994469,5.0267634
Mussy-la-Ville,49.5714143,5.6617004
Vlimmeren,51.2988018,4.7821797
Overwinden (Landen),50.754998,5.0465735
LOKSBERGEN,50.9341079,5.0702987
KORTRIJK-DUTSEL,50.9260871,4.8059139
SINT-BRIXIUS-RODE,50.9568569,4.3258404
Houtain-le-Val,50.5827111,4.4155941
Champlon,50.1077503,5.5034047
KWAADMECHELEN,51.1017796,5.1483601
Plainevaux,50.544806,5.5215313
Geetbets,50.8917946,5.1144682
Viesville,50.4906131,4.4080963
SUGNY,49.3582488,4.6560891
LANDEGEM,51.0572245,3.5723828
GRIVEGNEE,50.6192957,5.6047622
Belsele,51.14633,4.08979
Zandvoorde,50.8128399,2.9809192
Ferrières Xhoris,50.443983,5.602069
Strombeek-bever,50.9083929,4.3516713
Obaix,50.5280208,4.3614973
HOEVENEN,51.3066168,4.4046996
Gerpinnes,50.3469274,4.5276014
Hamoir,50.4254063,5.5326084
Kortrijk Bellegem,50.7777862,3.2799523
Blaimont,44.3025594,0.8633931
Leuven Kessel-Lo,50.8852456,4.7313734
Flemalle,50.5994478,5.4699616
Wavre Bierges,50.7111796,4.5894025
PETIT-ROSIÈRE,50.6435755,4.8611053
Ans (Loncin),50.6613584,5.5097759
Gent Gentbrugge,51.0447236,3.7588813
Beloeil,45.5643183,-73.2040066
Ville-Pommeroeul,50.4649192,3.7236841
Mont-Saint-Aubert,50.6548972,3.3997827
SINT-MARTENS-LEERNE,51.0134905,3.5837978
Nukerke,50.7965606,3.5954667
VILLERS-SAINT-AMAND,50.6226624,3.730712
Auvelais,50.4470193,4.6354624
Gilly,46.4575111,6.2969883
Mont-Gauthier,50.2092771,5.120824
Saint-Georges-Sur-Meuse,50.6000654,5.3584259
HOUTHALEN,51.031137,5.3720755
Hensies,50.4328388,3.6847215
Alleur,50.6742549,5.5129926
Daverdisse Haut-Fays,50.0011711,5.0169148
Villers-le-Peuplier,50.656417,5.0958682
Overwinden,50.754998,5.0465735
Drogenbos,50.786532,4.3173542
SCHERPENHEUVEL-ZICHEM,50.9801033,4.9740173
SAINT-AMAND,50.1639886,2.5577664
Couvin,50.0524906,4.4955009
Merksem (Antwerpen),51.2438894,4.4397179
St-Michiels,51.1884619,3.2111722
Vaux-sous-Chèvremont,50.6018004,5.6339283
Les Bons Villers,50.5204241,4.4631101
VILLANCE,49.9709626,5.2221196
OCQUIER,50.3966356,5.3961397
FRAINEUX,50.5139012,5.4006283
TAMINES,50.4311411,4.6132813
Vise,50.7347797,5.6936397
Quévy Quévyle-Grand,48.38494,5.48701
Baelen (Lg.),51.16837,5.17027
Hemptinne,50.6010427,4.9869761
Wevelgem,50.8121065,3.1864393
Antwerpen Berchem,51.1997015,4.4323348
Voeren,50.746555,5.839016
RACHECOURT,49.5903125,5.7248143
LAVOIR,47.835123,4.7087921
BALÂTRE,49.7093467,2.8655624
Céroux-Mousty,50.6607536,4.5343881
Halle Lembeek,50.7135392,4.2229681
VILLERS-LE-BOUILLET,50.5753715,5.2607066
Rossart (Bertrix),49.8478343,5.3375198
Awans,50.6670346,5.4622239
DE KLINGE,51.2564526,4.0898144
Binkom,50.8721329,4.8840011
Ambresin,50.6266779,5.0305133
Bost,46.1788913,3.51931
Neerlanden,50.778151,5.0792149
Aartselaar,51.133297,4.3870241
Avennes,50.6287517,5.1159746
Spiennes,50.4254505,3.9868957
Forchies-la-Marche,50.4383794,4.3198191
Chapelle-lez-Herlaimont Piéton,50.4409579,4.2981642
WOLKRANGE,49.6349978,5.7982447
Fleron,50.6168354,5.6832219
WIJER,50.8972323,5.2233097
Oreye,50.7291681,5.3530675
Celles,45.2975677,0.4135916
Loverval,50.374997,4.47342
Wakken,50.930782,3.3978669
HERMALLE-SOUS-HUY,50.5569911,5.3622542
Petithan (Durbuy),50.3360631,5.4345873
Ottignies,50.666357,4.5690502
Kifissia,38.0736082,23.8082244
Kremasti,36.4112696,28.1205183
Neupré,50.5431751,5.4901079
Kessel-Lo (Leuven),50.8852456,4.7313734
Borgerhout (Antwerpen),51.2128453,4.4462406
Estaimpuis,50.7059794,3.2640184
Ouffet,50.4377341,5.4653273
Heinsch,49.7007526,5.7464566
EERNEGEM,51.1279829,3.0233013
Jupille-sur-meuse,50.6431909,5.6301266
Charleroi Ransart,50.4467675,4.4840838
ChÃtelet,48.8587782,2.3474106
Charleroi Montignies-sur-Sambre,50.4006804,4.4803675
ChÃtelet ChÃtelineau,50.4095111,4.5210978
Oudsbergen,51.0680799,5.557165
Charleroi Monceau-sur-Sambre,50.4170168,4.382402
Dilsen-Stokkem,51.0284779,5.7311405
Velaine-sur-Sambre,50.4713313,4.60725
Moorsel,50.9477279,4.0983893
FRASNES-LEZ - BUISSENAL,50.667755,3.6194481
Court-St.-Etienne,50.6443208,4.5685766
Rhode-Saint-Genèse,50.7479462,4.3619738
Esneux,50.533588,5.5686219
HEPPIGNIES,50.4817059,4.4935448
GUIGNIES,50.5471385,3.3663017
Mont-Saint-Guibert,50.6365628,4.6127019
Namur Champion,50.4963866,4.9012179
Messancy Wolkrange,49.6349978,5.7982447
La Louvière,50.479487,4.1852682
RUMILLIES,50.6196989,3.4375998
Bertogne,50.0843345,5.6676137
Beauraing,50.0914866,4.9640687
Beernem Sint-Joris,51.1270726,3.369744
SINT-LENAARTS,51.3473203,4.6787433
Liberchies,50.5135682,4.420755
St-Mard,48.5057109,6.3053637
Petit-Thier,50.3081766,5.9679438
Zwijndrecht (Zwijndrecht),51.82052,4.6257315
Wasmuel,50.445727,3.8466719
Watervliet,42.7300784,-73.7012299
CORROY-LE-GRAND,50.6617107,4.6747213
Ath Ostiches,50.6788509,3.7584252
Tournai Kain,50.6290903,3.4211649
Nieuwerkerken Kozen,50.8745057,5.2392483
Woluwe-Saint-Lambert - Sint-Lambrechts-Woluwe,50.8430448,4.4256732
SPIERE,50.7188362,3.3563884
Lichtaart,51.2240538,4.9198927
Beernem,51.1277439,3.3145416
Charleroi Lodelinsart,50.431853,4.4489421
Kruibeke Bazel,51.1471626,4.2972797
Hamois,50.3408694,5.1594475
Les Bons Villers (Mellet),50.504123,4.4762608
Ans Alleur,50.6742549,5.5129926
LA BOUVERIE,43.5008734,6.6443455
CASTEAU,50.5130195,4.0031319
Hollebeke,50.8056486,2.9383694
Boekhoute,51.2576962,3.7176064
St-Pieters-Leeuw,50.7811835,4.2452186
Kallo,51.2519515,4.27803
Fleurus,50.482944,4.549699
Rotselaar Wezemaal,50.9482598,4.7544622
Sint-Jans-Molenbeek,50.8545959,4.338636
WARCOING,50.702173,3.3451985
Laakdal,51.0802695,5.0073022
Wenduine,51.299095,3.0794343
Ardooie,50.9712076,3.2046503
PONTILLAS,50.5497501,5.0176053
Halle Buizingen,50.7412271,4.2493488
LETTELINGEN,50.6899321,4.0845939
Limbourg,50.6122761,5.9402987
HYON,50.4392359,3.9619447
Ghlin,50.4760502,3.903746
PEUTIE,50.9271252,4.4545868
Rosières,49.1882738,2.7791596
Zelem (Halen),50.9788799,5.1026566
Ingelmunster,50.9216909,3.2631367
Boncelles,50.5702815,5.5378515
FIZE-FONTAINE,50.5849842,5.2835083
ORROIR,50.747596,3.481663
Neufchateau - Lahérie,49.8647827,5.4826412
Lens,50.4291723,2.8319805
Gosselies,50.4653846,4.4301757
Ranst,51.1962373,4.5638134
NAMÈCHE,50.4712487,4.9947316
VILLERS-PERWIN,50.5262014,4.4783773
ZICHEM,51.0014178,4.9856978
Hechtel Eksel,51.1340192,5.3780119
WALEM,51.0657941,4.4568748
Dalhem,50.7139302,5.7229816
Aspelare,50.8421637,3.9584406
Jupille,46.2758235,1.8475108
Welle,53.2369924,9.8029649
BEVEREN- LEIE,50.8748081,3.3452412
SINT-PAUWELS,51.1929939,4.0958349
Kortenberg Erps-Kwerps,50.9039296,4.5587455
Rupelmonde,51.1271881,4.290421
OPONT,49.9348514,5.1201252
Saint-Ghislain Tertre,50.4668757,3.808459
Woluwe-St-Pierre,50.8370253,4.4274636
Aiseau-Presles,50.4022808,4.5753666
Meerbeke,50.8239947,4.0391883
Broechem,51.1813951,4.5967162
Sinaai-Waas,51.1829705,3.9854492
MONT-SAINT-GUIBERT,50.6365628,4.6127019
RHODE-SAINT-GENESE,50.74503,4.3463687
SINT-GILLIS-BIJ-DENDERMONDE,51.0195213,4.1105542
Mabompré,50.0988767,5.7383327
Drosia,41.1641325,25.6371474
Pagkrati,37.9667105,23.747913
Xilokastro,38.65,20.95
Péronnes-lez-Binche,50.4328765,4.158959
OOSTNIEUWKERKE,50.9404849,3.0592908
VIERSEL,51.187272,4.6503063
LANQUESAINT,50.6534242,3.8042549
SINT-MARTENS-LATEM,51.020971,3.6397549
Flémalle Awirs,50.5985223,5.409295
Ieper Zillebeke,50.8346385,2.9224029
Warsage,50.7352216,5.7690785
Gijzegem,50.9847481,4.0525271
Honnelles Angre,50.366983,3.6954509
Sambreville Arsimont,50.4273479,4.6388177
LEEST,51.0350559,4.4150058
EKE,50.7790852,2.5966366
Cerfontaine,50.2598795,4.0249254
STEENHUFFEL,50.9954209,4.2683305
Arendonk,51.3202315,5.0864557
BRUSSEGEM,50.9277713,4.2658869
Saint-remy (-lez-dalhem),50.7066155,5.7221106
CHÂTELINEAU,50.4155938,4.5179328
RONQUIÈRES,50.6084328,4.2235457
Herenthout,51.1392427,4.7543972
Deftinge,50.7863579,3.8409061
Aaigem,50.8894174,3.9366909
Bree,51.1386239,5.6229805
Wiekevorst,51.1099023,4.7941786
Beerzel,51.0586177,4.6698925
Stavelot,50.3942409,5.9310335
Trois Ponts,50.3726812,5.8702957
ORP-LE-GRAND,50.7034875,4.9912852
Roosdaal Pamel,50.8443655,4.0742795
Bavikhove,50.8754034,3.3113418
Sint-Kruis,51.2142018,3.2506508
AYE,50.2213931,5.291624
MELSELE,51.2211394,4.2821446
OUDEGEM,51.0090809,4.0613486
Sint-Eloois-Winkel,50.8765142,3.179116
Middelburg,51.4997302,3.6136962
Drieslinter,50.8443257,5.0472433
Rekem,50.922073,5.689395
Vroenhoven,50.828018,5.6374847
Sint-Eloois-Vijve,50.9059283,3.4038085
Oudegem,51.0090809,4.0613486
Cholargos,38.0049099,23.7947085
Werchter,50.9701533,4.6933645
GÉROUVILLE,49.6184295,5.4287902
Smetlede,50.9660712,3.9269566
Tertre,50.4668757,3.808459
Moen,59.2114556,11.0113806
Buzet,45.4078767,13.9655905
NANDRIN,50.5162261,5.3992564
Westende (Middelkerke),51.1587721,2.7683368
Valenciennes,50.3579317,3.5234846
Ecaussinnes-d'Enghien,50.5714795,4.1776303
CURFOZ,49.8137122,5.0845239
Erondegem,50.9407226,3.9555369
Hulshout Houtvenne,51.0418339,4.8089455
Vitrival,50.3941596,4.6558828
Houyet,50.1868629,5.0067044
Vresse-sur-Semois,49.8729769,4.9340633
MARBAIS,50.5451092,4.5326626
MARILLES,50.7072943,4.9529173
BIÈVRE,49.9411216,5.0168496
Antoing,50.5574604,3.4661875
MOGIMONT,49.8505667,5.0690859
VILLERS-LE-TEMPLE,50.5081117,5.370841
Montegnee,50.6423367,5.5186082
Rochefort Jemelle,50.1599751,5.2671586
OMBRET,44.9377248,3.6050407
SINT-MARIA-HOREBEKE,50.8383442,3.6875097
Habergy,49.6153377,5.7608307
Néchin,50.6669028,3.2689867
Gonrieux,50.0374018,4.4236449
Fleurus Heppignies,50.4817059,4.4935448
Charleroi Gosselies,50.4653846,4.4301757
ANSEROEUL,50.728033,3.520558
Liers,50.4569174,6.9429108
Pousset,50.6956401,5.3034495
Liege Grivegnée,50.6192957,5.6047622
Galatsi,38.0129055,23.7531049
Gerakas,38.0120455,23.8560814
Chalkida,38.4623664,23.5946877
Desselgem (Waregem),50.8866327,3.3497336
VILLE-POMMEROEUL,50.4649192,3.7236841
Wagnelée,50.5231724,4.5334768
AUBY-SUR-SEMOIS,49.8157173,5.1823728
BUZET,45.4078767,13.9655905
Marche-lez-Ecaussinnes,50.5468953,4.1832813
VELAINE-SUR-SAMBRE,50.4713313,4.60725
Outrijve,50.7559221,3.4298713
Arbre,-14.6938546,-75.1144693
MARCHE-LES-DAMES,50.4864453,4.9615056
Kortessem,50.859243,5.3872669
Saint-Remy (Blegny),50.6958409,5.700802
Laken,50.883392,4.3487134
Ham-sur-Heure,50.3219897,4.3889214
Ransart,50.2091002,2.6870458
SERAING,50.6152381,5.5089437
WINKSELE,50.8979511,4.6438521
Jemelle,50.1624278,5.2624584
Neeroeteren,51.0885745,5.7052955
Heist,53.6528424,9.6664509
Sint-Job-in-'t-Goor,51.2919982,4.5772717
COMBLAIN-LA-TOUR,50.4553077,5.5699525
Mellet,50.504123,4.4762608
Doische,50.1357152,4.7458219
MARCQ,49.3196924,4.9263408
ECAUSSINNES-D'ENGHIEN,50.5714795,4.1776303
NISMES,50.0745275,4.5486173
Chanly,50.0786533,5.1559991
Wellin,50.0822967,5.1146708
Hakendover,50.7943267,4.9820934
HANZINELLE,50.2949873,4.5607099
Hove,50.8286917,-0.1745744
Javingue,50.1018962,4.9187569
Signeulx (Musson),49.5528606,5.6403955
Beauvechain Tourinnes La Grosse,50.7777654,4.7472104
Woluwe-saint-lambert,50.8430448,4.4256732
Nieuwenrode,50.9799835,4.3512293
Woluwe Saint Pierre,50.8370253,4.4274636
Vorst,50.811795,4.3181187
ZOMERGEM,51.118399,3.5596004
Dadizele,50.8517979,3.0971782
APPELTERRE-EICHEM,50.8191641,3.965528
AWIRS,50.5985223,5.409295
EINDHOUT,51.1049674,5.003113
Etalle,49.6729527,5.5982415
FOREST,41.5329762,-79.2640912
WAHA,50.2119666,5.3441742
Neufmaison,49.7614945,4.5079475
Denderleeuw Iddergem,50.87409,4.0461474
Liège Jupillesur-Meuse,49.0,5.5
Hastière Blaimont,50.1920767,4.8348479
Hoogstraten Minderhout,51.4174934,4.7636002
Hoogstraten Meer,51.4471565,4.7390521
Pepinster,50.5675217,5.8037101
Brecht Sint-Job-in-'t-Goor,51.2919982,4.5772717
WALHAIN-SAINT-PAUL,50.6171227,4.6951584
Florenville Villers-devant-Orval,49.6185771,5.331466
Ucimont,49.8314004,5.0573896
Rochefort Lessive,50.1403899,5.1487567
Carnières,50.1691475,3.346696
Vlamertinge,50.8553795,2.8218204
HOVES,50.6717098,4.0358365
SINT-JOOST-TEN-NODE,50.8508197,4.3691634
Falisolle,50.4182456,4.621259
MONCEAU-EN-ARDENNE,49.9046481,4.9859857
Dottignies,50.7273981,3.3037301
Torgny,49.5089682,5.4909772
Zellik,50.8842475,4.2744185
Mélin,47.7392,5.82698
ITEGEM,51.1030959,4.7294471
SORÉE,45.6175264,9.0810206
SERAING-LE-CHÂTEAU,50.6215391,5.2996668
Wauthier-Braine,50.6803187,4.2988086
BOIS-DE-VILLERS,50.389973,4.823377
Grez-Doiceau (Hèze),50.7192721,4.7203329
HABAY-LA-NEUVE,49.730978,5.6528207
NIJLEN,51.1611887,4.6709517
BEVEREN,51.212885,4.2490813
Saint-Vith,50.2803881,6.1258953
Ohain,50.0398225,4.1191981
Gouvy,50.1857409,5.9428
Hanneche,50.5794218,5.0498369
NIEUWENRODE,50.9799835,4.3512293
Beveren-Waas,51.2082712,4.2597046
Tavigny (Houffalize),50.1082104,5.8378504
Blegny,50.6727185,5.7252372
Fauvillers (Hotte),49.8760283,5.662946
SINT-KRUIS-WINKEL,51.1541943,3.8234371
Dudzele,51.2747463,3.2292277
Opoeteren,51.0689429,5.6547965
Verviers Ensival,50.5785616,5.8479666
LOVENDEGEM,51.0956807,3.6076129
Arlon -Sterpenich,49.6618676,5.8834576
Landegem,51.0572245,3.5723828
Spiere-Helkijn,50.7279919,3.3667739
Flémalle,50.5994478,5.4699616
XHORIS,50.443983,5.602069
MARNEFFE,50.5790977,5.1448898
Lincent,50.7120946,5.033476
Hannut Grand-Hallet,50.6941249,5.0340731
Folx-les-caves,50.6610719,4.9370984
Vossem,50.8354014,4.5607522
Raeren,50.6761305,6.1108404
Wavre (Bierges),50.7111796,4.5894025
Iddergem,50.87409,4.0461474
Boechout,51.1597261,4.5098675
Markegem,50.9464244,3.4009158
Dinant Anseremme,50.23791,4.907923
Rutten,52.8051952,5.6973664
Zomergem,51.118399,3.5596004
Dohan,49.7973741,5.1418578
HINGEON,50.5244901,5.008801
Grez-Doiceau ( Nethen),50.7838206,4.675492
Dion-Valmont,50.7040055,4.659178
CORBAIS,50.6456509,4.6555212
GLIMES,50.6800531,4.838004
Nea Palatia,38.321287,23.7949364
Alken,50.8754731,5.3079873
Vlierzele,50.9315639,3.8975606
Klemskerke,51.242521,3.0238828
SUARLÉE,50.4806569,4.7802419
Trois-ponts,50.3726812,5.8702957
HAN-SUR-LESSE,50.1254505,5.1877385
Kessel-Lo,50.8852456,4.7313734
SINT-ELOOIS-VIJVE,50.9059283,3.4038085
LADEUZE,50.5680642,3.7717318
OOIKE,34.7810659,135.198828
BASECLES,50.5254379,3.6483501
Jemappes,50.448422,3.8894392
HEUSDEN,50.3730005,2.0366141
LASNE-CHAPELLE-SAINT-LAMBERT,50.6927451,4.5004885
JEMELLE,50.1624278,5.2624584
KEMZEKE,51.2065228,4.0771037
VERREBROEK,51.2553041,4.1881086
Charleroi Roux,50.4427818,4.3948512
Brugelette,50.6016956,3.8647979
Chiny Jamoigne,49.6958089,5.420477
GUELFF,49.6068424,5.7597171
Pelt,51.2197672,5.4299496
Cadzand,51.3663357,3.4109833
RHISNES,50.5056933,4.8038939
St-Gilles,49.2801594,3.6756348
Lissewege,51.2940637,3.198328
Chaudfontaine Embourg,50.591638,5.6105688
Agios Stefanos,37.4703009,25.3196909
Rekkem,50.7861863,3.1627429
Aiseau Presles,50.4022808,4.5753666
Grâce-Hollogne,50.6323039,5.4768436
Thimister,50.6533204,5.8625239
Nerem,50.765575,5.5113417
Koningshooikt,51.0965644,4.6097183
Buizingen (Halle),50.7412271,4.2493488
Goetsenhoven,50.7676384,4.9493833
Glons (Bassenge),50.7516741,5.5435822
Martelange,49.8149117,5.726815
AUVELAIS,50.4470193,4.6354624
OOIGEM,50.8931388,3.3367124
BAS-OHA,50.522397,5.1880583
Gougnies,50.3544437,4.5771625
Le Roeulx,50.50493,4.0917649
Vilvorde,50.928711,4.423126
VAUDIGNIES,50.5527147,3.8051764
Ophain-Bois-Seigneur-Isaac,50.6658971,4.3480069
Blaton,50.5004369,3.6608809
Namur Loyers,50.4615162,4.9537227
GLONS,50.7516741,5.5435822
HUISSIGNIES,50.5652288,3.754995
Petit-Enghien,50.6899321,4.0845939
Pommeroeul,50.4611987,3.7106608
Rochefort, Jemelle,50.1624278,5.2624584
Beveren Haasdonk,51.1806482,4.2383861
SINT-AGATHA-RODE,50.7868179,4.6338484
NeufchÃteau Longlier,49.8562222,5.4609005
Mont-sur-Marchienne,50.3902046,4.4046365
Hamont-Achel,51.2547636,5.5128696
MOERBEKE,50.6918534,2.5155576
Meerle,51.4743516,4.8051679
Diegem,50.8945555,4.4365042
EBEN-EMAEL,50.7931554,5.6665934
Lixhe,50.7550757,5.680109
FRASNES-LEZ-BUISSENAL,50.667755,3.6194481
AISCHE-EN-REFAIL,50.5992743,4.8355112
KOEKELARE,51.0911795,2.9682403
IXELLES,50.8331141,4.3668279
Courcelles Souvret,50.450999,4.350827
Antoing Maubray,50.5515108,3.5020267
Silly Thoricourt,50.6101161,3.9509699
Villers-aux-Tours,50.4969412,5.5122974
BIERSET,50.6547149,5.4512607
SAINT-SERVAIS,48.3873336,-3.3881776
BETEKOM,50.9859984,4.781192
BONEFFE,50.6237781,4.9575093
SART-DAMES-AVELINES,50.5680114,4.4926311
OHAIN,50.0398225,4.1191981
Houdemont,48.6470005,6.176117
STAMBRUGES,50.5086579,3.7192008
Thiméon,50.4903468,4.4281269
AMOUGIES,50.743719,3.5066795
Aubange - Halanzy,49.5590364,5.7422467
Gages,50.6068018,3.8910777
Comblain-au-Pont,50.4756986,5.5748498
Bressoux,50.6412964,5.6111443
MAURAGE,50.4540886,4.103814
Tellin Resteigne,50.0828516,5.1778089
Laplaigne,50.520961,3.4472745
Vrasene,51.2191283,4.194377
Lombardsijde,51.1490698,2.7568759
Molenstede,51.0040127,5.0165187
Beyne-Heusay Queue-du-Bois,50.6369652,5.6788052
Ravels Poppel,51.4476125,5.0427588
Beersel Alsemberg,50.7419942,4.3383125
Aalst Nieuwerkerken,50.9243137,4.0051497
Estinnes,50.3803767,4.1150981
Gembloux Bossière,50.518835,4.6970033
Incourt Roux-Miroir,50.7085122,4.7848246
Tinlot,50.4777419,5.3786954
Obourg,50.4760289,4.0062232
NEDERENAME,50.8678376,3.6322868
TORGNY,49.5089682,5.4909772
Leopoldsburg Heppen,51.1088561,5.2275686
Tellin,50.081019,5.216837
St-Stevens-Woluwe,50.8692776,4.4528019
Acharnes,38.0841607,23.7368653
Samos,37.7246162,26.8192919
Marcinelle centre,50.4010805,4.4474843
La Bruyere,47.83,6.48491
Woluwé-Saint-Pierre,50.8370253,4.4274636
Martouzin-neuville,50.1159088,5.0131952
COUTURE-SAINT-GERMAIN,50.6740792,4.4785548
Pellenberg,49.5667411,6.483292
Incourt,50.39081,2.15181
Bernissart,50.4785984,3.691426
Salles,44.550875,-0.8699921
WENDUINE,51.299095,3.0794343
Silly,50.6431888,3.9425916
Neuville-en-Condroz,50.5520337,5.4514318
MOMALLE,50.6852325,5.3730111
Herbeumont,49.7815364,5.2377736
Vlaams Brabant,50.8686516,4.7886238
LEDEBERG,51.0372053,3.7414088
ROGNÉE,50.2691529,4.3892146
Aarschot Rillaar,50.9757406,4.8928649
TONGRINNE,50.5157258,4.623887
Fraipont,50.5664059,5.7227298
HOGNE,60.9313081,10.1644623
Sensenruth,49.8254037,5.0738804
Zarlardinge,50.762563,3.8287421
Lierneux,50.2858086,5.7921558
Oostduinkerke (Koksijde),51.1156338,2.6812656
Court-Saint-Etienne,50.6443208,4.5685766
Juprelle,50.7112425,5.5265882
Plombières Moresnet,50.7208739,5.9880362
Kipseli,37.8190502,20.8236722
Amarinthos,38.393,23.88492
Koekelare,51.0911795,2.9682403
Lasne Ohain,50.6977184,4.4706902
©rez©e,54.9073858,-1.3814579
Rochefort, Belvaux,50.1069832,5.1934521
ChÃtelet Bouffioulx,50.390213,4.5151961
Leval-Trahegnies,50.416547,4.218073
Wasmes,50.414181,3.846637
WADELINCOURT,49.6862633,4.9396035
Abele,55.9406185,25.7962927
Chatelet,48.8587782,2.3474106
Melsen,50.9579283,3.6928827
ROTHEUX-RIMIÈRE,50.5353385,5.4811796
Chaussée-Notre-Dame-Louvignies,50.5921606,3.9979808
Arlon Freylange,49.6983033,5.7669857
Neufchateau-Longlier,49.8562222,5.4609005
Steenokkerzeel Perk,50.9331623,4.4960702
Knokke-Het Zoute,51.3540109,3.2984508
AMBERLOUP,50.0292955,5.5272931
Beloeil Quevaucamps,50.5187136,3.6801575
Belgrade,44.8178131,20.4568974
GOUTROUX,50.4128561,4.3575452
Beersel Dworp,50.7303901,4.2985231
Koksijde Oostduinkerke,51.1156338,2.6812656
CHATELINEAU,50.4155938,4.5179328
Quiévrain Baisieux,50.387884,3.6957835
LINDEN,50.6019526,7.8504832
SAINTE-ODE,50.0166761,5.5595141
HOZÉMONT,50.6248747,5.3965432
VELTEM-BEISEM,50.9020979,4.6255138
Lombise,50.6007682,3.9397913
Buissenal,50.6648633,3.6551307
Asse Mollem,50.9328497,4.2239826
NOISEUX,50.2982859,5.3724637
LIGNY,50.5126287,4.5757572
MUSSY-LA-VILLE,49.5714143,5.6617004
HAININ,50.4311514,3.7661218
Rillaar,50.9757406,4.8928649
Charleroi Mont-sur-Marchienne,50.3902046,4.4046365
Heusy,50.57804,5.867539
BELLECOURT,50.4843145,4.254013
ROCLENGE-SUR-GEER,50.7570507,5.5942881
Hulste,50.8819668,3.2955857
WASMES,50.414181,3.846637
BIESMERÉE,50.2976627,4.6809835
FAMILLEUREUX,50.5228784,4.2108151
Leuze,49.8522222,4.1625
Stalhille,51.2142072,3.071601
Sint-Kruis-Winkel,51.1541943,3.8234371
St-Denijs-Westrem,51.0199405,3.6676767
PETIT-ENGHIEN,50.6899321,4.0845939
Honnelles Roisin,50.333082,3.6938101
Hastiere,50.1969874,4.8224304
Cierreux (Gouvy),50.2446382,5.928367
Wellin Chanly,50.0786533,5.1559991
CLERMONT-SOUS-HUY,50.5689247,5.3918483
HEURE-LE-ROMAIN,50.7316969,5.6295554
EINE,51.6799936,11.389463
Westrem,50.9697855,3.8614248
INGOOIGEM,50.817362,3.4345043
Ixelles - Cimetière d'XL,50.8331141,4.3668279
PÉRONNES,50.5474084,3.4513753
Sint-Truiden Gelinden,50.7651244,5.2612743
Libin Transinne,50.0004466,5.2026639
Waha,50.2119666,5.3441742
On,50.000678,-86.000977
Langemark,50.9135381,2.9183672
Historic Center,45.7969501,24.1498557
Wespelaar,50.9598898,4.6336453
Leernes,50.3974398,4.3307851
Havré,50.4605733,4.0375124
Vichte,50.8354873,3.4048906
HAVAY,19.5938015,-155.4283701
RESSAIX,50.4238135,4.1910898
Fexhe-le-Haut-Clocher,50.6643107,5.3993831
Laneffe,50.2778386,4.4950207
Watou,50.8585545,2.6202796
Baelen,50.6312854,5.9713469
Battice,50.6479385,5.8196401
Meise Wolvertem,50.9510266,4.3085198
Kortenberg Everberg,50.8778651,4.5695061
Thuin Thuillies,50.2947304,4.329007
Steenhuize-Wijnhuize,50.8411146,3.8903745
Arlon Bonnert,49.7107729,5.8190143
Marche-en-Famenne Hargimont,50.1825868,5.3094652
Pont-à-Celles Liberchies,50.5135682,4.420755
Boneffe,50.6237781,4.9575093
OBAIX,50.5280208,4.3614973
LAEKEN (BRU.),50.883392,4.3487134
Wambeek,50.8527296,4.1632557
CHÊNEE,50.6111024,5.619261
MOULBAIX,50.600191,3.7156806
Chapelle-lez-Herlaimont Godarville,50.4955503,4.2865899
Tintigny Rossignol,49.718767,5.4851582
Heure-le-romain,50.7316969,5.6295554
Harzé,50.4409138,5.6672743
LONGLIER,49.8562222,5.4609005
Roksem,51.1704671,3.03129
Mons Harveng,50.3949004,3.986884
Waudrez,50.4137808,4.150981
SINT-JANS-MOLENBEEK,50.8545959,4.338636
HÉVILLERS,50.6220144,4.6162971
Zuienkerke,51.2685834,3.1567406
Cornesse,48.0935521,-1.002632
Ninove Meerbeke,50.8239947,4.0391883
Sclayn,50.4897139,5.0284735
Heuvelland,50.773569,2.8326917
Hannut Crehen,50.6605954,5.0621464
Tavier,50.4960009,5.4706564
Racour,50.7388269,5.0290114
Virton Ruette,49.5376723,5.5937884
AMAY,50.5497761,5.3240992
BOUFFIOULX,50.390213,4.5151961
BAISY-THY,50.5930799,4.4653124
Fexhe-Slins,50.7217678,5.5714112
POESELE,51.0339653,3.5163661
WIERDE,50.4257472,4.952557
Saint-Servais,48.3873336,-3.3881776
HARCHIES,50.4794445,3.6936
Saint-Georges-sur-Meuse,50.6000654,5.3584259
Beauraing Pondrôme,50.0991378,5.0083667
Borsbeke,50.9047179,3.8945771
Hechtel-Eksel,51.1340192,5.3780119
NAOMÉ,49.9226206,5.0894297
HACQUEGNIES,50.6519709,3.5944364
Wellin Lomprez,50.0762474,5.092143
Lovendegem,51.0956807,3.6076129
Ingooigem,50.817362,3.4345043
Hastière-par-delà,50.2150767,4.8294854
Puurs,51.0762086,4.2817075
Westkapelle,50.9282728,2.5075846
Breendonk,51.0424768,4.3244863
Moerkerke,51.2454679,3.3410211
Maurage,50.4540886,4.103814
NALINNES,50.3249486,4.4466922
GENTINNES,50.5812637,4.6027236
Hannut Blehen,50.6629289,5.1255375
Gedinne Houdremont,49.942041,4.9445943
BAASRODE,51.0359382,4.1634796
SINT-KRUIS,51.2142018,3.2506508
SPONTIN,50.322619,5.006949
Dolembreux,50.5368456,5.6251502
Finnevaux (Houyet),50.1581671,4.9452635
Denderhoutem,50.8717796,4.0180839
Champion,50.4963866,4.9012179
Basècles,50.5254379,3.6483501
Lambermont,50.8429244,4.3654807
Koolskamp,51.0020706,3.2092316
Westouter,50.7982882,2.7462978
Hannut Petit-Hallet,50.6873307,5.018461
Jemeppe,50.6180868,5.4997184
Sint-Katelijne-Waver,51.0623243,4.5114278
BERLOZ,50.6978415,5.2140163
Barvaux (Durbuy),50.350609,5.4932843
Nimy (Mons),50.4759358,3.9545894
Krombeke,50.9154319,2.6822204
Roesbrugge- Haringe,50.9150531,2.6262588
QUEVAUCAMPS,50.5187136,3.6801575
Saint-Mard,49.3863,3.5828
Waterland-Oudeman,51.2891181,3.5905485
Nieuwkerken-Waas,51.1933908,4.1780279
WOLVERTEM,50.9510266,4.3085198
ZANDVLIET,51.3599666,4.3086817
SINT-JOB-IN-'T-GOOR,51.2919982,4.5772717
Westrozebeke,50.9310188,3.0121528
Herselt,51.0554542,4.9018135
Komen-Waasten,50.7683055,3.0001175
Burg-Reuland,50.1967468,6.1342559
St-Léger,50.1863917,2.8583578
pepinster,50.5675217,5.8037101
Leeuw-Saint-Pierre,50.7811835,4.2452186
CIPLET,50.6171399,5.0956294
WOLUWÉ-SAINT-LAMBERT,50.8430448,4.4256732
Lint,51.1268305,4.4922187
Zutendaal,50.9318992,5.5725548
Gedinne Louette-Saint-Pierre,49.960145,4.9276767
Brunehaut,50.5292187,3.4082158
Les Bons Villers Mellet,50.504123,4.4762608
Berzée,50.2892396,4.4012206
Blaasveld (Willebroek),51.0565194,4.3723517
Kruibeke,51.1762547,4.2980369
WAUTHIER-BRAINE,50.6803187,4.2988086
Tourinnes-la-Grosse,50.7777654,4.7472104
Brye,50.5241804,4.5569413
Wépion,50.4212957,4.8633768
Montegnée,50.6423367,5.5186082
Thon,50.4641615,5.0133577
Hal,53.7435722,-0.3394758
MAILLEN,50.3775518,4.9699385
Mortehan,49.7995404,5.2118395
Le Roeulx Gottignies,50.4971832,4.0621719
FLOREFFE,50.4366874,4.7600394
Rocherath,50.4344078,6.3009381
Namur Flawinne,50.456602,4.8120768
RUDDERVOORDE,51.0953149,3.2048308
Saint-Leger,50.1863917,2.8583578
LAMBUSART,50.4572953,4.5521381
Aalst Moorsel,50.9477279,4.0983893
Thy-le-Château,50.2827004,4.4278716
EQUIHEN PLAGE,50.679393,1.5716648
Benahavis - Marbella,36.4948864,-5.0531806
Nivelles Bornival,50.601858,4.2705562
Sint Idesbald,51.1092741,2.6128803
Schuiferskapelle,51.0322608,3.3336293
OTEPPE,50.5823876,5.1269874
Fraire,50.2613846,4.5081639
Neos Kosmos,37.961696,23.7298407
Arsimont,50.4273479,4.6388177
RECHT,50.3349273,6.0431296
SAINT-MARC,44.9014478,3.1911751
Rongy,50.507796,3.391588
Achet,2.4,32.533333
Doische Gimnée,50.1315986,4.7141334
Haasdonk,51.1806482,4.2383861
Gomzé-Andoumont,50.545063,5.6835773
Liège (Longdoz),50.629896,5.5834599
Aalst Herdersem,50.9708754,4.0669578
Comblain-la-Tour,50.4553077,5.5699525
Mellier (Léglise),49.7671531,5.5209461
Wiheries,50.3855365,3.7510978
WESTENDE-BAD,51.169767,2.7760607
Agia Paraskevi,40.9487494,23.4569396
Elst,51.9187914,5.8452555
Haneffe (Donceel),50.6386942,5.3191175
FLÉRON,50.6168354,5.6832219
Bruxelles 12,50.9025473,4.3349724
MOHA,47.2430218,18.333815
Rêves,50.5387438,4.4164953
Waardamme,51.1123296,3.2222872
Geer Lens-Saint-Servais,50.6637114,5.16091
Rollegem,50.7690135,3.2605254
Gent (9000),51.0538286,3.7250121
NIEUWENHOVE,50.7875051,3.9891935
Limont,50.207428,3.9222104
Zarren,51.0185167,2.9585072
Hannut Abolens,50.6720125,5.1499051
Anhee,50.3101511,4.8776042
Grembergen,51.0540034,4.1070284
Berchem-St-Agathe,50.8649231,4.2946734
Outer,50.8415963,3.9994911
Sivry,48.8306908,6.2001136
Braives Fumal,50.5867896,5.1843021
Wijgmaal,50.926428,4.7001214
Gesves Haltinne,50.451066,5.0742688
ACHOUFFE,50.1501741,5.745452
Compogne,50.0863135,5.7095208
Ortho,50.12492,5.6140263
Roesbrugge,50.9184893,2.625963
VILLE-EN-HESBAYE,50.6184127,5.1146644
Miécret,50.3657949,5.2495351
Bon-Secours,43.321133,5.3852405
Pecq,50.6849804,3.3528017
OPGRIMBIE,50.9436011,5.6810305
Beez,50.4687313,4.9219558
Leers-et-Fosteau,50.3041589,4.244767
©caussinnes,N/A,N/A
St-Servais,48.5110375,-4.1547375
Chimay,50.0358705,4.3214165
Momignies,50.0087898,4.2142085
Housse,50.6796028,5.6944438
Polleur,50.5399885,5.8787388
Liege 1,50.571922,5.5671615
Tamines,50.4311411,4.6132813
Mons-lez-Liège (Flemalle),50.6224546,5.4600597
Froidfontaine,50.0604028,5.000634
Andrimont,50.4386821,5.8901888
Malle Westmalle,51.2988871,4.6908984
Heist-op-den-Berg Schriek,51.0248817,4.6908515
Braine-le-ChÃteau Wauthier-Braine,50.6803187,4.2988086
Ans (Xhendremael),50.7043671,5.4805775
Veldegem,51.1048944,3.1606518
Opglabbeek,51.0429949,5.581962
Haren,52.7905619,7.2400267
ERPE-MERE,50.9226391,3.9459888
Damme Sijsele,51.2004843,3.3235879
Zingem,50.9039326,3.653793
Fauvillers,49.8509306,5.665031
Corbion,49.7974564,5.0087055
Tiegem,50.8085182,3.4753524
Oostvleteren,50.9337013,2.7410044
Zuidschote,50.9129617,2.8285726
GROS-FAYS,49.869524,4.9830915
HAINE-SAINT-PIERRE,50.4547557,4.2000181
Balegem,50.9252028,3.7896135
Kruishoutem,50.9048236,3.5281805
FORÊT,50.583997,5.7002354
Hives,50.1506704,5.5783344
DENDERWINDEKE,50.7986183,4.0241352
Sart-bernard,50.405155,4.9506941
NOORDERWIJK,51.141115,4.8402651
Nadrin (Houffalize),50.1608117,5.6809237
Sinaai,51.15689,4.04172
Lo-Reninge,50.9638066,2.7643391
Wulpen,51.0976296,2.7032093
Sint-Martens-Latem,51.020971,3.6397549
Veerle,51.3299384,4.6718192
Stavelot Francorchamps,50.4531568,5.952833
FAYT-LEZ-MANAGE,50.4898236,4.2282511
LA HESTRE,50.4738724,4.2358174
Saint-Ghislain - Tertre,50.4668757,3.808459
Sterrebeek,50.8613343,4.5124544
Poesele,51.0339653,3.5163661
Wichelen Schellebelle,51.0127238,3.928714
AUTRE-ÉGLISE,50.6631583,4.9249295
Waimes,50.4724141,6.1222907
Montigny-le-Tilleul,50.3791631,4.3796745
Bruxelles 1,43.4249245,5.2422373
BRUXELLES 1,43.4249245,5.2422373
GRIMMINGE,50.7945316,3.9525416
Pecq Hérinneslez-Pecq,50.68619,3.33789
Dentergem,50.9661608,3.401986
HAMPTEAU,50.2579039,5.4729019
Linter,50.8291537,5.0409717
Saint-Nicolas Montegnée,50.6423367,5.5186082
Beaumont Leugnies,50.2244996,4.1961682
TILLY,49.1454611,1.5298369
Sint-Pieters-Leeuw Ruisbroek,50.7900129,4.2980824
Oelegem,51.2110687,4.5972162
WEGNEZ,50.5789617,5.8175559
Barvaux (-sur-ourthe),50.350609,5.4932843
ZANDBERGEN,50.8013287,3.9673318
PONTISSE,50.6871725,5.6306403
Leisele,50.9844835,2.622401
Nederhasselt,50.8463587,3.9750229
Brussegem,50.9277713,4.2658869
Desteldonk,51.1221778,3.7836111
Grand-Leez,50.581423,4.7667376
Sint-Pieters-Leeuw Vlezenbeek,50.8075574,4.2319001
BOUSVAL,50.6164197,4.5086646
Beaufays,50.5590549,5.6385711
GRANDMENIL,50.2923724,5.6624969
Sint-Niklaas Belsele,51.14633,4.08979
HAASDONK,51.1806482,4.2383861
HELECINE,50.7514034,4.9822395
WAGNELEE,50.5231724,4.5334768
Woumen,51.0012605,2.8702221
Rochefort (Jemelle),50.1599751,5.2671586
Fays-les-veneurs,49.8662058,5.1607144
Ooigem,50.8931388,3.3367124
Sint-Ulriks-Kapelle,50.8800337,4.2206526
St-Georges-sur-Meuse,50.6000654,5.3584259
Seraing Jemeppesur-Meuse,49.0,5.5
Kemzeke,51.2065228,4.0771037
fuengirola,36.5388398,-4.6233974
La Louvière Boussoit,50.4575751,4.0828886
Oplinter,50.8293481,4.9894563
Hachy,49.7015507,5.6805003
Othée,50.7159281,5.4680939
RAMSDONK,51.0148193,4.3356406
MEMBRE-SUR-SEMOIS,49.8655398,4.9002694
Groot-Gelmen,50.7830874,5.2663492
Winksele,50.8979511,4.6438521
Mannekensvere,51.1258003,2.8183418
GOEFERDINGE,50.7654043,3.8392513
Virton Ethe,49.5818622,5.5797776
Appelterre-Eichem,50.8191641,3.965528
St-Katelijne-Waver,51.0623243,4.5114278
QUENAST,50.670891,4.1578662
Arquennes - Seneffe,50.5679939,4.2746041
La Bruyère,47.83,6.48491
Ottignies-Louvain-La-Neuve,50.6654216,4.5674107
Waarschoot,51.1515304,3.6061712
Hulsonniaux,50.202049,4.9469691
Les Issambres,43.3469667,6.7125179
LiÃ¨ge,59.263,5.9279252
Kain,14.0445273,-2.7586005
Baileux,50.0298544,4.3755329
TOLLEMBEEK,50.741227,4.0067667
WAARSCHOOT,51.1515304,3.6061712
Herent Winksele,50.8979511,4.6438521
Marche-en-Famenne (On),50.229228,5.3412142
Maissin,49.9651106,5.1805775
Geraardsbergen Schendelbeke,50.7968671,3.8989486
FRASNES-LEZ-GOSSELIES,50.5376477,4.4501525
Ardooie Koolskamp,51.0020706,3.2092316
Horion,50.6311815,5.3781744
Horion-Hozémont,50.6288217,5.3782996
Bovesse,50.5172469,4.7780533
Bellingen,50.5918529,7.9058013
Malonne,50.4382517,4.7966661
MONTZEN,50.7075554,5.961962
DOCHAMPS,50.2341724,5.6233067
Rumes,50.5423684,3.3176187
Habay-La-Neuve,49.730978,5.6528207
MARIA TER HEIDE,51.3238215,4.5201317
SAINT-MAUR,49.6155716,1.9183427
VELLEREILLE-LE-SEC,50.401796,4.0573258
Wasseiges Ambresin,50.6266779,5.0305133
Bievre,49.9411216,5.0168496
Orp-le-grand,50.7034875,4.9912852
Chassepierre,49.7076905,5.2621817
GOMPEL,51.1927937,5.1502009
Haneffe,50.6386942,5.3191175
Beverlo,51.0872757,5.2192865
Gent Ledeberg,51.0372053,3.7414088
Fontaine-l'Évêque,50.4117794,4.3246322
Mettet Biesme,50.3346461,4.6073303
Gizi - Pedion Areos,37.99231,23.73774
Lavacherie,50.052317,5.5136455
ZEVERGEM,50.9786614,3.6943144
Court-Saint-Étienne,50.6443208,4.5685766
SINT-GILLIS-DENDERMONDE,51.0195213,4.1105542
Rulles (Habay),49.7181041,5.558116
JAUCHE,50.6816078,4.9552091
Politika,38.5957341,23.5441547
Nea Smyrni,37.9467441,23.7138357
Amblève,50.3543055,6.1705559
Braine L'alleud,50.6828722,4.3692706
Denée,47.3788643,-0.6077257
FLASSIGNY,49.4728239,5.4405926
Forchies la marche,50.4383794,4.3198191
Gent Oostakker,51.1001986,3.7644128
Ohey,50.4359066,5.1238439
Solre-sur-Sambre,50.3067709,4.1558267
Zichen-Zussen-Bolder,50.7946558,5.6196314
OREYE,50.7291681,5.3530675
Bléharies,50.5131151,3.4155171
EEKLO,51.1844827,3.5665965
Honnay,50.0809205,5.0395362
Spierre-helkijn,50.7197325,3.3572643
St-Andries,51.1973292,3.1810364
Zemst Hofstade,50.9912146,4.4938796
Mons Saint-Symphorien,50.4366253,4.012574
Bornem Mariekerke,51.0630598,4.191058
BARVAUX-SUR-OURTHE,50.350609,5.4932843
Loyros,N/A,N/A
Anhée,50.3101511,4.8776042
marbella,36.508976,-4.88562
Aublain,50.0672297,4.4090395
DHUY,50.5596814,4.8573789
VILLERS-EN-FAGNE,50.1457902,4.5846227
ANDERLECHT,50.8390983,4.3296526
Grembergen (Dendermonde),51.0540034,4.1070284
Isières,50.6637962,3.8181687
Sint-Pauwels,51.1929939,4.0958349
Hotton,50.2688011,5.4463304
Saint-Germain,48.4324928,6.3386744
Sint-Gillis,50.8249958,4.3454841
HASTIÈRE,50.1969874,4.8224304
Hognoul,50.6808099,5.4556394
Sint-Lambrechts-Woluwe,50.8430448,4.4256732
MULLEM,51.4272925,6.8829192
Tielen,54.2855218,9.3348897
Plombieres,50.7377318,5.9611134
Beauraing Winenne,50.0980233,4.8930998
BROECHEM,51.1813951,4.5967162
Neerwinden,50.765746,5.0368679
Geraardsbergen Onkerzele,50.7820091,3.9109582
Fossesla-Ville Le Roux,44.81953,6.94357
SINT-MARIA-OUDENHOVE,50.8338454,3.7949437
Heist-op-den-Berg Booischot,51.0524068,4.7784936
WAVRE (BIERGES),50.7111796,4.5894025
Romedenne,50.172324,4.6976
Ham-sur-Heure-Nalinnes,50.325928,4.4145235
WODECQ,50.7178459,3.7444299
LABUISSIÈRE,50.3141612,4.194796
Kuringen,50.9439384,5.3052007
MÉLIN,47.7392,5.82698
Quevy,50.3677506,3.9668522
Barvaux-sur-Ourthe,50.350609,5.4932843
Sint-Gillis-Dendermonde,51.0195213,4.1105542
Terhagen (Rumst),51.078277,4.3993623
FELUY,50.5625055,4.2507809
Moustier-sur-Sambre,50.4660542,4.6967162
GRATY,36.8727778,57.5241667
Baillonville,50.2896515,5.3399821
VAL-SAINT-LAMBERT,49.8455605,6.2467157
Tournai Gaurain-Ramecroix,50.5924891,3.4834445
VILLEROT,50.4861629,3.7902777
Herent Veltem-Beisem,50.9020979,4.6255138
Pont-de-Loup,50.4173702,4.5459892
Aat,-72.9447067,90.5
Ravels,51.3799481,5.0200064
tordera,41.6977173,2.7172987
Saint-josse-ten-noode,50.8508197,4.3691634
Florée,50.3730757,5.0704373
STEENHUIZE-WIJNHUIZE,50.8411146,3.8903745
Jauche,50.6816078,4.9552091
Neupré Neuvilleen-Condroz,50.5526503,5.4509373
Gognies Chaussee,50.3392405,3.9435615
SAINT-GHISLAIN,50.4477484,3.8195241
Eben-Emael,50.7931554,5.6665934
Court-St-Etienne,50.6443208,4.5685766
Eke,50.7790852,2.5966366
Kooigem,50.739664,3.3261001
LIPPELO,51.0430989,4.2615
LUSTIN,50.3791991,4.8963534
Schellebelle,51.0127238,3.928714
Jurbise,50.522126,3.9078669
Casteau,50.5130195,4.0031319
Afsnee,51.0309024,3.6683286
Bellecourt,50.4843145,4.254013
Villajoyosa,38.5100778,-0.2296202
Blicquy,50.5878005,3.6857513
Mouland,50.7574029,5.7163587
Wevelgem Moorsele,50.8518106,3.1489107
Givry,46.7831191,4.7432564
DONGELBERG,50.6989511,4.8215443
Autelbas,49.649319,5.8603759
SINT-MARTENS-BODEGEM,50.8628418,4.215204
Sleidinge,51.1319999,3.6789079
Montenaken,50.7217695,5.1281787
Cuerne,50.8516592,3.2856695
OPPUURS,51.0663067,4.2444735
DUFEL,52.0411539,9.182686
Brugge Sint-Andries,51.1973292,3.1810364
Libin Redu,50.0077873,5.1601828
Helchteren,51.0566984,5.3830618
Nea Filadelfeia,40.7977727,22.84076
Verviers Stembert,50.593109,5.8952801
MEUX,45.4432687,-0.3480928
Houffalize Nadrin,50.1608117,5.6809237
Lambusart,50.4572953,4.5521381
MARIEMBOURG,50.0941307,4.5233186
Emblem,-31.3938395,150.8291408
Hermeton-sur-meuse,50.1967082,4.8189189
Wegnez,50.5789617,5.8175559
VITRIVAL,50.3941596,4.6558828
Verviers - Polleur,50.5399885,5.8787388
URBANITZACIÓ ALHAMA SPRINT,N/A,N/A
Adinkerke,51.0755389,2.6022094
WANGENIES,50.4776262,4.519112
Ensival,50.5785616,5.8479666
Charleroi Couillet,50.391219,4.468631
Leglise,49.8003582,5.5381496
COUTHUIN,50.5330937,5.1322912
MOUSTIER,44.6359231,0.3010935
Wolkrange,49.6349978,5.7982447
NEERHEYLISSEM,50.7567681,4.9890154
Lasne Maransart,50.6603737,4.461492
Hertsberge,51.1054322,3.2735041
Zandvliet,51.3599666,4.3086817
Beveren-Leie,50.8748081,3.3452412
Hemelveerdegem,50.8071286,3.8573918
Zandbergen,50.8013287,3.9673318
TILLEUR,50.6206584,5.5306658
Melsbroek,50.9170725,4.4758811
EPPEGEM,50.961429,4.4556575
Kassei (Vilvoorde),50.9230308,4.4125709
HOLLAIN,50.5416392,3.4269751
Oetingen,49.1745826,6.9161261
Puurs Breendonk,51.0424768,4.3244863
Yernée-Fraineux,50.5282409,5.3829522
Saint-Nicolas Tilleur,50.6206584,5.5306658
Berchem-Ste-Agathe,50.8649231,4.2946734
Roesbrugge-Haringe,50.9150531,2.6262588
Eynatten,50.6974991,6.0983613
SPIENNES,50.4254505,3.9868957
Aardenburg,51.2758,3.44035
Baardegem,50.9558958,4.1425196
OPPREBAIS,50.6818109,4.7957904
Montroeul-au-Bois,50.6427639,3.5718727
WECHELDERZANDE,51.2634596,4.7863029
Oisquercq,50.6700726,4.2167874
AVIN,50.620859,5.067671
Anixi,38.132904,23.8609319
Somme-Leuze Hogne,50.24859,5.279464
Goé,50.6086202,5.9562188
Skiros,38.8730435,24.5244774
La Hestre,50.4738724,4.2358174
Erquelinnes,50.3030663,4.1585864
ROUVREUX,50.4902443,5.6500553
Ottenburg,48.3184687,11.5974057
Blégny,50.6727185,5.7252372
MILMORT,50.6904632,5.5929155
Sint-Maria-Latem,50.890215,3.7059521
Merkem,50.9527838,2.8520424
Kalyvia Thorikou,37.8394442,23.9281669
Logos,38.1869174,20.4377485
ETROEUNGT,50.0578793,3.9272508
Coxyde,51.1092282,2.6352757
Virton Bleid,49.5680419,5.6272894
SINT-PIETERS-WOLUWE,50.8370253,4.4274636
ChÃtelineau,50.4155938,4.5179328
Houyet Hour,50.1613066,5.0372408
MOUSTIER-SUR-SAMBRE,50.4660542,4.6967162
Neigem,50.8029219,4.0598616
Kumtich,50.8188455,4.8874012
Celles Pottes,50.7314164,3.4050325
Aalst Hofstade,50.9610208,4.0344021
Marche-lez-©caussinnes,50.5473869,4.1817714
Cuesmes,50.436171,3.9206652
ERBISOEUL,50.5155495,3.8961158
Ninove Pollare,50.8168641,3.9969451
Suarlée,50.4806569,4.7802419
Beaumont Strée,50.2766332,4.2980462
Hoepertingen,50.81127,5.2843824
Mons-lez-liège,50.6224546,5.4600597
Bellefontaine,48.0151724,6.4433771
Gentbrugge ,51.0447236,3.7588813
Jemeppe-sur-Meuse,50.6180868,5.4997184
PERK,50.9331623,4.4960702
KONINGSHOOIKT,51.0965644,4.6097183
Villance,49.9709626,5.2221196
Forges,48.4193206,2.9603646
Velle (Temse),51.161134,4.208745
Sart (-lez-spa),50.51744,5.933482
Nevele,51.0330372,3.5491068
WITGOOR,51.1794411,4.9078321
ERTVELDE,51.1793505,3.7471789
Koolkerke,51.2419954,3.2473789
Pollare,50.8168641,3.9969451
Quevaucamps,50.5187136,3.6801575
Liege Jupille,50.6504295,5.6343432
Bourlers,50.027359,4.341293
Visé Cheratte,50.6840338,5.6707671
Namur (Saint-servais),50.4778694,4.8452444
Voormezele,50.8169949,2.8757825
St-Eloois-Vijve,50.9059283,3.4038085
Wiers,50.5084748,3.5344465
Bekegem,51.1597456,3.0455229
Zétrud-lumay,50.7592057,4.8838518
Linter Neerlinter,50.8390188,5.0216555
Verviers Heusy,50.57804,5.867539
Saint-Ghislain Baudour,50.4815271,3.8312173
Berlare Overmere,51.0465918,3.9464848
Petegem-aan-de-Leie,50.969075,3.5324987
Neuville en condroz,50.5520337,5.4514318
PETIT-WARET,50.525222,5.0480565
St.-Amandsberg,51.061875,3.7488657
Fossesla-Ville,48.34266,7.30574
Libramont-Chevigny -Presseux,49.9176437,5.4010068
Beauraing Baronville,50.1265468,4.9447676
Saint-ghislain,50.4477484,3.8195241
Montigny-le-Tilleul-Landelies,50.377822,4.3496404
Mons Havré,50.4605733,4.0375124
Houdeng-Aimeries,50.4827327,4.1495773
Ogy,49.1126447,6.3165307
Pepinster Wegnez,50.5681798,5.8063518
GRAND-RENG,50.3287642,4.0705909
Vezin,50.4966018,5.0114611
Châtelineau,50.4155938,4.5179328
Sint-Jan-in-Eremo,51.2682182,3.580094
Termes,43.0004148,2.5621374
RELEGEM,50.8998481,4.2808363
Vieux-Genappe,50.6083965,4.4412263
Torre Pacheco,37.743133,-0.9539015
rojales,38.0871747,-0.7228213
alhama de murcia,37.8515145,-1.4251045
Balsicas,37.5984804,-1.2508028
Torrejon de Ardoz,40.4587767,-3.4793343
SAINT-GÉRARD,50.3463414,4.7395306
Ombret,44.9377248,3.6050407
Messelbroek,50.9952269,4.9385703
KNESSELARE,51.1392692,3.412339
Warcoing,50.702173,3.3451985
Serskamp,50.9888236,3.9295057
VYLE-ET-THAROUL,50.4462735,5.2682682
Baarle-Hertog,51.4383589,4.9316995
Tournai Blandain,50.6248967,3.303531
Athis,49.0154807,4.1278042
Lomprez,50.0762474,5.092143
ORBAIS,50.6376269,4.7631073
EMBLEM,-31.3938395,150.8291408
Vouliagmeni,37.8139557,23.7821394
Romedenne (Philippeville),50.172324,4.6976
LUINGNE,50.7383945,3.2337378
BAILLONVILLE,50.2896515,5.3399821
MERBES-SAINTE-MARIE,50.3552041,4.1711042
Wasseiges Meeffe,50.6089827,5.0157994
Xhendelesse,50.6037018,5.7726472
FLAWINNE,50.456602,4.8120768
Liège 2,50.6536806,5.5565328
NATOYE,50.3413885,5.056163
Dilbeek Itterbeek,50.8395994,4.2501187
LEIGNON,50.2687357,5.1102616
BARVAUX,50.350609,5.4932843
Roy,41.1715361,-112.0273739
Mormont,50.3263332,5.5924651
Nederename,50.8678376,3.6322868
Beloeil Ellignies-Sainte-Anne,50.5612993,3.6767116
Saint-gérard,50.3463414,4.7395306
AISEAU,50.4111232,4.5870152
STRÉPY-BRACQUEGNIES,50.474474,4.1207031
PÉRONNES-LEZ-BINCHE,50.4328765,4.158959
Melsele,51.2211394,4.2821446
Kypseli,39.2972751,20.5545573
Temeni,38.237016,22.1227269
St-Kruis,51.2142018,3.2506508
Buggenhout Opstal,50.9983603,4.1761038
Wichelen Serskamp,50.9888236,3.9295057
SAINT-SYMPHORIEN,49.3140652,0.4670513
BASTOGNE,50.0023102,5.7173386
Sint-Niklaas Sinaai-Waas,51.1829705,3.9854492
Bierghes,50.6955911,4.1172805
KESSEL LO,50.8852456,4.7313734
Rotem,32.3364933,35.5187999
Montignies-sur-roc,50.3680079,3.7333223
Acoz,50.358769,4.532218
Wiltz,49.9666914,5.9321021
MEERDONK,51.2588943,4.1511549
HOUWAART,50.9329808,4.8595549
PESSOUX,50.2825466,5.1707753
Gingelom - Niel bij St-Truiden,50.7411776,5.1397096
Beyne-Heusay Bellaire,50.6447087,5.6654685
Saint-Sauveur,47.35727,5.41413
Coronmeuse,50.6542295,5.6115179
OPITTER,51.1171567,5.6461619
NIEL-BIJ-SINT-TRUIDEN,50.7411776,5.1397096
Hennuyeres,50.6386981,4.1715689
Flémalle-Grande,50.6153939,5.4730851
Marbisoux,50.5484623,4.5542264
SEPTON,50.360101,5.4374175
Ghislenghien,50.6566864,3.875818
Chaumont-Gistoux Dion-Valmont,50.7040055,4.659178
Frameries Sarsla-Bruyère,44.60657,1.15894
Angre,50.366983,3.6954509
Sint-Pieters-Leeuw ,50.7811835,4.2452186
Tournai Froyennes,50.6267498,3.3578712
Taintignies,50.549906,3.3410768
Péruwelz Bon-Secours,50.4976184,3.607483
BON-SECOURS,43.321133,5.3852405
Cortil-Wodon,50.5659991,4.9566451
Haut-fays,50.0011711,5.0169148
Ninove (Outer),50.8415963,3.9994911
Ninove Outer,50.8415963,3.9994911
Lo,45.2613104,9.4916781
VELAINES,48.7033589,5.3001073
ANSEREMME,50.23791,4.907923
Petigny,50.0583821,4.5324267
Zwijndrecht Burcht,51.2028046,4.3416362
Liege (Bressoux),50.6412964,5.6111443
FONTAINE-VALMONT,50.3204689,4.2139743
Geraardsbergen Ophasselt,50.8218582,3.897035
